Unique_ID,Year,Unit_ID,Institution_Name,City,State,Zip,Region,Latitude,Longitude,Admission_Rate,SAT_Avg,Tuition_Cost,Student_Loan_Percentage,Age_Entry,Male_Percentage,Female_Percentage,Number_Grad
2011_100654,2011,100654,Alabama A & M University,Normal,AL,35762,5,34.783368,-86.568502,0.501,846,14965,0.948347107,20.95702479,0.4786,0.5214,794
2011_100663,2011,100663,University of Alabama at Birmingham,Birmingham,AL,35294-0110,5,33.50223,-86.80917,0.7223,1107,19547,0.911005693,23.4768501,0.4154,0.5846,6447
2011_100690,2011,100690,Amridge University,Montgomery,AL,36117-3553,5,32.362609,-86.17401,-1,-1,11540,0.938829787,33.15425532,0.4389,0.5611,415
2011_100706,2011,100706,University of Alabama in Huntsville,Huntsville,AL,35899,5,34.722818,-86.63842,0.6368,1164,19072,0.897435897,23.81111111,0.5402,0.4598,1694
2011_100724,2011,100724,Alabama State University,Montgomery,AL,36104-0271,5,32.364317,-86.295677,0.508,783,15986,0.923204787,21.13863032,0.4054,0.5946,682
2011_100751,2011,100751,The University of Alabama,Tuscaloosa,AL,35487-0166,5,33.2144,-87.545766,0.4353,1158,21681,0.938986441,21.48866415,0.4677,0.5323,5413
2011_100760,2011,100760,Central Alabama Community College,Alexander City,AL,35010,5,32.924429,-85.94653,-1,-1,7485,0.525423729,24.94965105,0.3435,0.6565,-1
2011_100812,2011,100812,Athens State University,Athens,AL,35611,5,34.805625,-86.96514,-1,-1,-1,0.802882141,30.89397838,0.3459,0.6541,-1
2011_100830,2011,100830,Auburn University at Montgomery,Montgomery,AL,36117-3596,5,32.369939,-86.177351,0.7894,970,15179,0.918128655,23.62317252,0.3806,0.6194,902
2011_100858,2011,100858,Auburn University,Auburn,AL,36849,5,32.604685,-85.482782,0.7,1204,21140,0.920988087,20.51156272,0.5101,0.4899,5023
2011_100937,2011,100937,Birmingham Southern College,Birmingham,AL,35254,5,33.515453,-86.853636,0.6418,1166,39848,0.949425287,19.73333333,0.5103,0.4897,-1
2011_101028,2011,101028,Chattahoochee Valley Community College,Phenix City,AL,36869,5,32.42391,-85.031485,-1,-1,6110,0.152719665,25.67085077,0.3539,0.6461,-1
2011_101073,2011,101073,Concordia College Alabama,Selma,AL,36701,5,32.42443,-87.023531,-1,-1,14622,0.906824147,22.31102362,0.5688,0.4312,-1
2011_101116,2011,101116,South University-Montgomery,Montgomery,AL,36116,5,32.342684,-86.216488,0.5533,-1,31718,0.764190059,31.27894009,0.2866,0.7134,74
2011_101143,2011,101143,Enterprise State Community College,Enterprise,AL,36330-1300,5,31.297496,-85.836956,-1,-1,9304,0.446490791,26.45943255,0.6077,0.3923,-1
2011_101161,2011,101161,James H Faulkner State Community College,Bay Minette,AL,36507-2698,5,30.852045,-87.779758,-1,-1,9182,0.557512953,24.4507772,0.3661,0.6339,-1
2011_101189,2011,101189,Faulkner University,Montgomery,AL,36109-3390,5,32.384181,-86.21641,0.5802,953,25198,0.928086839,28.82180009,0.3611,0.6389,569
2011_101240,2011,101240,Gadsden State Community College,Gadsden,AL,35903,5,33.991866,-85.991299,-1,-1,10452,PrivacySuppressed,25.86907631,0.3758,0.6242,-1
2011_101277,2011,101277,New Beginning College of Cosmetology,Albertville,AL,35951,5,34.27871,-86.196931,-1,-1,-1,0.635135135,26.28378378,0,1,-1
2011_101286,2011,101286,George C Wallace State Community College-Dothan,Dothan,AL,36303-9234,5,31.316086,-85.46355,-1,-1,7754,PrivacySuppressed,25.83535683,0.332,0.668,-1
2011_101295,2011,101295,George C Wallace State Community College-Hanceville,Hanceville,AL,35077-2000,5,34.07341,-86.781745,-1,-1,10771,0.634807053,25.80296448,0.3578,0.6422,-1
2011_101301,2011,101301,George C Wallace State Community College-Selma,Selma,AL,36703-2808,5,32.445611,-87.01324,-1,-1,14974,PrivacySuppressed,25.02628571,0.3197,0.6803,-1
2011_101365,2011,101365,Herzing University-Birmingham,Birmingham,AL,35209,5,33.468105,-86.832299,0.979,-1,23839,0.849144495,31.057601,0.3333,0.6667,-1
2011_101435,2011,101435,Huntingdon College,Montgomery,AL,36106-2148,5,32.350939,-86.285313,0.6199,995,29369,0.948684211,23.89736842,0.4946,0.5054,-1
2011_101453,2011,101453,Heritage Christian University,Florence,AL,35630-9977,5,34.859089,-87.662062,-1,-1,14080,PrivacySuppressed,32.94594595,0.8644,0.1356,26
2011_101462,2011,101462,J F Drake State Community and Technical College,Huntsville,AL,35811,5,34.772116,-86.573817,-1,-1,7718,PrivacySuppressed,28.94797246,0.3809,0.6191,-1
2011_101480,2011,101480,Jacksonville State University,Jacksonville,AL,36265,5,33.822128,-85.766644,0.8365,998,17718,0.895863747,23.58491484,0.4155,0.5845,1291
2011_101499,2011,101499,Jefferson Davis Community College,Brewton,AL,36426,5,31.101995,-87.085829,-1,-1,9487,PrivacySuppressed,25.450783,0.4504,0.5496,-1
2011_101505,2011,101505,Jefferson State Community College,Birmingham,AL,35215-3098,5,33.652439,-86.707387,-1,-1,12999,0.504982846,26.03724882,0.3983,0.6017,-1
2011_101514,2011,101514,John C Calhoun State Community College,Tanner,AL,35671,5,34.65428,-86.949131,-1,-1,9672,0.502031666,25.71514642,0.4182,0.5818,-1
2011_101541,2011,101541,Judson College,Marion,AL,36756,5,32.630526,-87.316127,0.7435,1020,26090,0.951923077,22.125,0.0205,0.9795,-1
2011_101569,2011,101569,Lawson State Community College-Birmingham Campus,Birmingham,AL,35221-1717,5,33.451673,-86.890234,-1,-1,10966,PrivacySuppressed,25.18839129,0.3957,0.6043,-1
2011_101587,2011,101587,University of West Alabama,Livingston,AL,35470,5,32.59244,-88.186077,0.6756,954,16119,0.933944954,25.71620795,0.3964,0.6036,3182
2011_101602,2011,101602,Lurleen B Wallace Community College,Andalusia,AL,36420-1418,5,31.322947,-86.452262,-1,-1,10270,PrivacySuppressed,24.87983134,0.3308,0.6692,-1
2011_101648,2011,101648,Marion Military Institute,Marion,AL,36756-3207,5,32.622359,-87.317998,0.6023,1064,17620,0.765909091,19.74545455,0.8276,0.1724,-1
2011_101675,2011,101675,Miles College,Fairfield,AL,35064-2621,5,33.481306,-86.908605,-1,-1,19126,0.954204204,22.00750751,0.4994,0.5006,-1
2011_101693,2011,101693,University of Mobile,Mobile,AL,36613-2842,5,30.793247,-88.128934,0.8065,1060,27248,0.950920245,25.98261759,0.3266,0.6734,190
2011_101709,2011,101709,University of Montevallo,Montevallo,AL,35115-6000,5,33.10625,-86.865099,0.757,1070,17670,0.908340215,22.40132122,0.341,0.659,524
2011_101736,2011,101736,Northwest-Shoals Community College,Muscle Shoals,AL,35661,5,34.739567,-87.67733,-1,-1,10476,0.43647541,24.39002732,0.4195,0.5805,-1
2011_101879,2011,101879,University of North Alabama,Florence,AL,35632-0001,5,34.80658,-87.680999,0.8764,1009,12977,0.866857552,22.83500358,0.4289,0.5711,1155
2011_101897,2011,101897,Northeast Alabama Community College,Rainsville,AL,35986,5,34.545471,-85.911664,-1,-1,7120,0.258315335,26.57321814,0.3812,0.6188,-1
2011_101912,2011,101912,Oakwood University,Huntsville,AL,35896,5,34.756628,-86.661628,0.4355,906,32985,0.953660797,22.67284523,0.4301,0.5699,53
2011_101949,2011,101949,Alabama Southern Community College,Monroeville,AL,36460,5,31.488925,-87.326352,-1,-1,9421,PrivacySuppressed,24.13622975,0.313,0.687,-1
2011_101958,2011,101958,Prince Institute-Southeast,Elmhurst,IL,60126,3,41.928952,-87.962922,-1,-1,24357,0.881355932,33.49717514,0.036,0.964,-1
2011_101994,2011,101994,Reid State Technical College,Evergreen,AL,36401,5,31.46071,-86.964486,-1,-1,7391,PrivacySuppressed,27.0015625,0.3547,0.6453,-1
2011_102030,2011,102030,Bishop State Community College,Mobile,AL,36603-5898,5,30.693972,-88.056982,-1,-1,8731,PrivacySuppressed,25.6621937,0.3535,0.6465,-1
2011_102049,2011,102049,Samford University,Birmingham,AL,35229-2240,5,33.464578,-86.790932,0.8258,1176,34371,0.914869467,21.29965948,0.3594,0.6406,1808
2011_102058,2011,102058,Selma University,Selma,AL,36701,5,32.420358,-87.033826,-1,-1,7969,0.735677083,28.36588542,0.5424,0.4576,40
2011_102067,2011,102067,Shelton State Community College,Tuscaloosa,AL,35405-8522,5,33.120531,-87.56148,-1,-1,12401,PrivacySuppressed,23.33877442,0.4233,0.5767,-1
2011_102076,2011,102076,Snead State Community College,Boaz,AL,35957-0734,5,34.201247,-86.169479,-1,-1,8923,0.179159049,25.27056673,0.3608,0.6392,-1
2011_102094,2011,102094,University of South Alabama,Mobile,AL,36688-0002,5,30.695081,-88.18189,0.8726,1027,13746,0.916401407,23.13536606,0.4403,0.5597,3191
2011_102234,2011,102234,Spring Hill College,Mobile,AL,36608-1791,5,30.694751,-88.138199,0.4854,1089,40233,0.945454546,21.15524476,0.3692,0.6308,182
2011_102261,2011,102261,Southeastern Bible College,Birmingham,AL,35244-2083,5,33.378935,-86.749045,1,996,18509,PrivacySuppressed,30.34259259,0.5977,0.4023,-1
2011_102270,2011,102270,Stillman College,Tuscaloosa,AL,35401,5,33.199228,-87.585242,0.4647,851,24615,0.946902655,20.4941003,0.4674,0.5326,-1
2011_102298,2011,102298,Talladega College,Talladega,AL,35160,5,33.434258,-86.113675,-1,-1,20622,0.827137547,22.46096654,0.441,0.559,-1
2011_102313,2011,102313,H Councill Trenholm State Community College,Montgomery,AL,36108-3199,5,32.350109,-86.343057,-1,-1,10474,PrivacySuppressed,26.72247858,0.4778,0.5222,-1
2011_102368,2011,102368,Troy University,Troy,AL,36082-0001,5,31.800128,-85.950191,0.7147,970,16024,0.909281546,28.95960977,0.3714,0.6286,5582
2011_102377,2011,102377,Tuskegee University,Tuskegee,AL,36088-1920,5,32.431021,-85.710315,0.641,915,30034,0.961970075,19.74376559,0.4253,0.5747,468
2011_102395,2011,102395,United States Sports Academy,Daphne,AL,36526-7055,5,30.639329,-87.91163,-1,-1,-1,PrivacySuppressed,31.17073171,0.8372,0.1628,438
2011_102429,2011,102429,Bevill State Community College,Jasper,AL,35501,5,33.835785,-87.265034,-1,-1,13284,PrivacySuppressed,25.25493945,0.3575,0.6425,-1
2011_102553,2011,102553,University of Alaska Anchorage,Anchorage,AK,99508,8,61.189554,-149.826135,-1,-1,14278,0.739343227,25.89327439,0.4185,0.5815,1054
2011_102580,2011,102580,Alaska Bible College,Palmer,AK,99645,8,61.59843,-149.111341,-1,-1,10430,PrivacySuppressed,25.5,0.6071,0.3929,-1
2011_102614,2011,102614,University of Alaska Fairbanks,Fairbanks,AK,99775-7500,8,64.856483,-147.822943,-1,-1,15070,0.730992035,25.85228096,0.4291,0.5709,1194
2011_102632,2011,102632,University of Alaska Southeast,Juneau,AK,99801-8697,8,58.38427,-134.636346,-1,-1,13554,0.773393461,27.22435175,0.3418,0.6582,370
2011_102669,2011,102669,Alaska Pacific University,Anchorage,AK,99508,8,61.191235,-149.804242,0.3261,1077,39710,0.860169492,29.15677966,0.3422,0.6578,210
2011_102711,2011,102711,AVTEC-Alaska's Institute of Technology,Seward,AK,99664-0889,8,60.110727,-149.444573,0.3654,-1,-1,0.58974359,26.47008547,0.7414,0.2586,-1
2011_102845,2011,102845,Charter College,Vancouver,WA,98683-7575,8,61.195786,-149.840178,-1,-1,23187,0.889934149,28.06698025,0.2635,0.7365,-1
2011_103361,2011,103361,Prince William Sound Community College,Valdez,AK,99686-0097,8,-1,-1,-1,-1,11549,0.739343227,25.89327439,0.3377,0.6623,-1
2011_103501,2011,103501,Alaska Career College,Anchorage,AK,99507-1033,8,61.181443,-149.856954,-1,-1,-1,0.843016069,28.26081582,0.168,0.832,-1
2011_103644,2011,103644,Everest College-Phoenix,Phoenix,AZ,85021-1641,6,-1,-1,-1,-1,30946,0.847914253,29.12630359,0.2276,0.7724,-1
2011_103723,2011,103723,Collins College,Phoenix,AZ,85040,6,-1,-1,-1,-1,29875,0.929370218,25.50765156,0.7466,0.2534,-1
2011_103732,2011,103732,Empire Beauty School-Paradise Valley,Phoenix,AZ,85032,6,-1,-1,-1,-1,-1,0.921641791,26.70149254,0.1149,0.8851,-1
2011_103741,2011,103741,Empire Beauty School-Tucson,Tucson,AZ,85716,6,32.235657,-110.927187,-1,-1,-1,0.875621891,26.21144279,0.0691,0.9309,-1
2011_103778,2011,103778,Thunderbird School of Global Management,Glendale,AZ,85306-6000,6,33.620887,-112.180861,-1,-1,-1,PrivacySuppressed,28.53535354,1,0,1265
2011_103787,2011,103787,American Indian College Inc,Phoenix,AZ,85021,6,33.577738,-112.092247,-1,-1,20602,0.690140845,26.88732394,0.3827,0.6173,-1
2011_103811,2011,103811,American Institute of Trucking,Phoenix,AZ,85043-4729,6,33.442262,-112.175304,-1,-1,-1,0.993065693,38.63540146,0.9074,0.0926,-1
2011_103893,2011,103893,Carrington College-Phoenix North,Phoenix,AZ,85051-4063,6,33.560821,-112.115546,1,-1,-1,0.897314087,27.39521286,0.1911,0.8089,-1
2011_103909,2011,103909,Carrington College-Mesa,Mesa,AZ,85210,6,33.39207,-111.855281,1,-1,-1,0.897314087,27.39521286,0.2169,0.7831,-1
2011_103927,2011,103927,Carrington College-Tucson,Tucson,AZ,85745,6,32.224,-110.982961,1,-1,-1,0.897314087,27.39521286,0.2297,0.7703,-1
2011_103945,2011,103945,CollegeAmerica-Flagstaff,Flagstaff,AZ,86001,6,35.194607,-111.65739,-1,-1,25339,0.9375,28.671875,0.1444,0.8556,-1
2011_103954,2011,103954,Arizona Academy of Beauty-East,Tucson,AZ,85712,6,32.237253,-110.872305,-1,-1,-1,0.895238095,27.82857143,0.06,0.94,-1
2011_103963,2011,103963,Arizona Automotive Institute,Glendale,AZ,85301-3579,6,33.537249,-112.157344,-1,-1,-1,0.896813354,28.72534143,0.9394,0.0606,-1
2011_104090,2011,104090,Brookline College-Phoenix,Phoenix,AZ,85021,6,33.525384,-112.15007,-1,-1,-1,0.937788385,28.58249801,0.1691,0.8309,-1
2011_104151,2011,104151,Arizona State University-Tempe,Tempe,AZ,85287,6,33.422247,-111.934629,0.8664,1099,20061,0.883333333,23.63771008,0.4953,0.5047,13850
2011_104160,2011,104160,Arizona Western College,Yuma,AZ,85365-8834,6,32.689306,-114.495968,-1,-1,13401,0.134843391,24.30348611,0.4274,0.5726,-1
2011_104179,2011,104179,University of Arizona,Tucson,AZ,85721-0066,6,32.232071,-110.950769,0.7536,1102,21624,0.841216216,21.27274225,0.4762,0.5238,8571
2011_104188,2011,104188,Southwest University of Visual Arts-Tucson,Tucson,AZ,85716,6,32.252384,-110.927321,-1,-1,46183,0.925,26.44642857,0.4331,0.5669,2
2011_104294,2011,104294,Brillare Hairdressing Academy,Scottsdale,AZ,85254,6,-1,-1,-1,-1,-1,0.930232558,24.63953488,0.0925,0.9075,-1
2011_104346,2011,104346,Central Arizona College,Coolidge,AZ,85128-9030,6,32.957092,-111.652501,-1,-1,8702,0.355925406,27.85642671,0.3853,0.6147,-1
2011_104364,2011,104364,Brown Mackie College-Tucson,Tucson,AZ,85712,6,32.236736,-110.895086,-1,-1,28349,0.863364625,29.17240613,0.4242,0.5758,-1
2011_104391,2011,104391,Charles of Italy Beauty College,Lake Havasu City,AZ,86403,6,34.475275,-114.328134,-1,-1,-1,0.896103896,28.35714286,0.122,0.878,-1
2011_104425,2011,104425,Cochise County Community College District,Douglas,AZ,85607-6190,6,31.365757,-109.690422,-1,-1,8244,0.221467391,25.71105073,0.4474,0.5526,-1
2011_104434,2011,104434,Empire Beauty School-Flagstaff,Flagstaff,AZ,86004,6,35.197151,-111.625936,-1,-1,-1,0.922606925,25.55600815,0.0566,0.9434,-1
2011_104443,2011,104443,Empire Beauty School-Chandler,Chandler,AZ,85224,6,33.347586,-111.860423,-1,-1,-1,0.922606925,25.55600815,0.0923,0.9077,-1
2011_104504,2011,104504,Cortiva Institute-Tucson,Tucson,AZ,85710,6,32.21901,-110.856785,-1,-1,-1,0.939814815,31.61574074,0.285,0.715,-1
2011_104531,2011,104531,DeVry University-Arizona,Phoenix,AZ,85021-2995,6,-1,-1,0.9188,-1,29706,0.912549983,29.74661522,0.6784,0.3216,-1
2011_104568,2011,104568,Avalon School of Cosmetology-Mesa,Mesa,AZ,85210,6,33.376583,-111.858305,-1,-1,-1,0.908411215,24.40093458,0.063,0.937,-1
2011_104577,2011,104577,Eastern Arizona College,Thatcher,AZ,85552-0769,6,32.840719,-109.761664,-1,-1,10219,PrivacySuppressed,25.24744277,0.4902,0.5098,-1
2011_104586,2011,104586,Embry-Riddle Aeronautical University-Prescott,Prescott,AZ,86301-3720,6,34.615678,-112.452285,0.8234,1142,43624,0.769613948,25.91851984,0.8218,0.1782,51
2011_104665,2011,104665,Frank Lloyd Wright School of Architecture,Scottsdale,AZ,85259,6,33.60715,-111.846477,-1,-1,-1,PrivacySuppressed,PrivacySuppressed,0.8333,0.1667,18
2011_104708,2011,104708,Glendale Community College,Glendale,AZ,85302,6,33.567483,-112.188334,-1,-1,12007,0.481327475,26.02502746,0.4666,0.5334,-1
2011_104717,2011,104717,Grand Canyon University,Phoenix,AZ,85017,6,33.512172,-112.129917,0.3683,-1,29968,0.884884297,33.80735676,0.2349,0.7651,15601
2011_104805,2011,104805,Anthem College-Phoenix,Phoenix,AZ,85014,6,-1,-1,-1,-1,-1,0.862283632,30.83070149,0.2219,0.7781,-1
2011_104911,2011,104911,International Academy of Hair Design,Tempe,AZ,85282-6730,6,33.38145,-111.940071,-1,-1,-1,0.869565217,26.32265446,0.0586,0.9414,-1
2011_104984,2011,104984,Lamson College,Tempe,AZ,85284,6,-1,-1,-1,-1,-1,0.904166667,30.475,0.2167,0.7833,-1
2011_105118,2011,105118,Kaplan College-Phoenix,Phoenix,AZ,85029,6,-1,-1,-1,-1,-1,0.927357033,28.4683153,0.2392,0.7608,-1
2011_105127,2011,105127,Maricopa Beauty College LLC,Avondale,AZ,85323,6,-1,-1,-1,-1,-1,PrivacySuppressed,26.04411765,0.1014,0.8986,-1
2011_105145,2011,105145,GateWay Community College,Phoenix,AZ,85034,6,33.4495,-111.996527,-1,-1,13316,0.634075908,30.53217822,0.4599,0.5401,-1
2011_105154,2011,105154,Mesa Community College,Mesa,AZ,85202,6,33.391256,-111.871494,-1,-1,12925,0.580562823,26.45147087,0.4797,0.5203,-1
2011_105163,2011,105163,ITT Technical Institute-Tucson,Tucson,AZ,85704-5829,6,32.297261,-110.997501,0.6875,-1,26385,0.840442539,29.29226826,0.8147,0.1853,-1
2011_105172,2011,105172,ITT Technical Institute-Tempe,Tempe,AZ,85282,6,33.380355,-111.969169,0.7426,-1,26952,0.840442539,29.29226826,0.7795,0.2205,-1
2011_105206,2011,105206,Mohave Community College,Kingman,AZ,86409-1238,6,35.270737,-114.030244,-1,-1,24458,0.406205924,29.86544429,0.3471,0.6529,-1
2011_105215,2011,105215,Universal Technical Institute of Arizona Inc-Motorcycle Mechanics Institute Division,Phoenix,AZ,85027,6,33.684428,-112.121336,-1,-1,-1,0.936493818,26.15120519,0.9588,0.0412,-1
2011_105297,2011,105297,Dine College,Tsaile,AZ,86556,6,36.293328,-109.21684,-1,-1,11752,PrivacySuppressed,24.81959379,0.3377,0.6623,-1
2011_105330,2011,105330,Northern Arizona University,Flagstaff,AZ,86011-4092,6,35.180095,-111.657653,0.6478,1058,21182,0.887355723,24.0076369,0.4188,0.5812,4613
2011_105349,2011,105349,Northland Pioneer College,Holbrook,AZ,86025-0610,6,34.922221,-110.1316,-1,-1,11304,PrivacySuppressed,28.1034749,0.2966,0.7034,-1
2011_105367,2011,105367,Ottawa University-Phoenix,Phoenix,AZ,85021,6,33.57172,-112.113301,-1,-1,-1,0.954303461,32.04658385,0.2421,0.7579,543
2011_105428,2011,105428,Phoenix College,Phoenix,AZ,85013,6,33.481361,-112.088293,-1,-1,12678,0.545032287,28.09640875,0.3733,0.6267,-1
2011_105482,2011,105482,Cortiva Institute-Scottsdale,Scottsdale,AZ,85257,6,33.466554,-111.908433,-1,-1,-1,0.921875,32.21875,0.2336,0.7664,-1
2011_105516,2011,105516,University of Phoenix-Phoenix Campus,Tempe,AZ,85282-2371,6,-1,-1,-1,-1,26877,0.878610433,31.82652612,0.4468,0.5532,1978
2011_105525,2011,105525,Pima Community College,Tucson,AZ,85709-1275,6,32.221737,-110.887033,-1,-1,7415,0.447938421,27.04421505,0.4489,0.5511,-1
2011_105534,2011,105534,Pima Medical Institute-Tucson,Tucson,AZ,85716,6,32.250448,-110.921306,-1,-1,-1,0.911402733,27.37811926,0.2418,0.7582,-1
2011_105543,2011,105543,Pima Medical Institute-Albuquerque,Albuquerque,NM,87110,6,35.10488,-106.594381,-1,-1,-1,0.911402733,27.37811926,0.1908,0.8092,-1
2011_105589,2011,105589,Prescott College,Prescott,AZ,86301,6,34.5445,-112.476509,0.8255,1112,37677,0.930434783,27.76086957,0.4056,0.5944,404
2011_105659,2011,105659,Refrigeration School Inc,Phoenix,AZ,85034-1816,6,33.448692,-111.989357,-1,-1,-1,0.867213115,31.81311475,0.9859,0.0141,-1
2011_105668,2011,105668,Rio Salado College,Tempe,AZ,85281,6,33.413138,-111.975201,-1,-1,13925,0.771088305,33.30936831,0.34,0.66,-1
2011_105677,2011,105677,Roberto-Venn School of Luthiery,Phoenix,AZ,85007,6,33.45489,-112.086161,-1,-1,-1,PrivacySuppressed,27.95789474,0.95,0.05,-1
2011_105701,2011,105701,Hair Academy of Safford,Safford,AZ,85546,6,32.835302,-109.727696,-1,-1,-1,0.563218391,26.12643678,0.0588,0.9412,-1
2011_105747,2011,105747,Scottsdale Community College,Scottsdale,AZ,85256,6,33.509489,-111.887298,-1,-1,12807,0.621924903,26.4130341,0.4995,0.5005,-1
2011_105792,2011,105792,South Mountain Community College,Phoenix,AZ,85042,6,33.381001,-112.057515,-1,-1,12786,0.455886781,27.05781391,0.3899,0.6101,-1
2011_105899,2011,105899,Arizona Christian University,Phoenix,AZ,85032-7097,6,33.595117,-112.026211,0.5666,1016,30745,0.879154079,22.38066465,0.5256,0.4744,-1
2011_105987,2011,105987,Tucson College,Tucson,AZ,85711,6,32.22205,-110.883181,-1,-1,-1,0.937627812,27.88650307,0.3763,0.6237,-1
2011_106041,2011,106041,Universal Technical Institute of Arizona Inc,Avondale,AZ,85323,6,33.453533,-112.289693,-1,-1,-1,0.921012326,23.19466122,0.977,0.023,-1
2011_106102,2011,106102,Western International University,Tempe,AZ,85282,6,33.403625,-111.964182,-1,-1,28979,0.798795181,37.23373494,0.3637,0.6363,727
2011_106111,2011,106111,Empire Beauty School-NW Phoenix,Phoenix,AZ,85051,6,33.538093,-112.118168,-1,-1,-1,0.891891892,26.25945946,0.0976,0.9024,-1
2011_106148,2011,106148,Yavapai College,Prescott,AZ,86301,6,34.547512,-112.454156,-1,-1,8887,0.368688293,28.82425952,0.416,0.584,-1
2011_106245,2011,106245,University of Arkansas at Little Rock,Little Rock,AR,72204,5,34.726644,-92.341835,0.9624,1030,16990,0.872874326,26.4311489,0.3998,0.6002,2694
2011_106263,2011,106263,University of Arkansas for Medical Sciences,Little Rock,AR,72205-7199,5,34.749718,-92.320945,-1,-1,-1,0.934810952,27.7809648,0.1966,0.8034,1891
2011_106281,2011,106281,ABC Beauty College Inc,Arkadelphia,AR,71923,5,34.12018,-93.080831,-1,-1,-1,PrivacySuppressed,27.54117647,0.3684,0.6316,-1
2011_106306,2011,106306,Arkansas Baptist College,Little Rock,AR,72202-6068,5,34.734751,-92.290555,-1,-1,20015,0.922863099,23.30229326,0.598,0.402,-1
2011_106315,2011,106315,Arkansas Beauty School-Little Rock,Little Rock,AR,72209,5,34.669071,-92.334814,-1,-1,-1,PrivacySuppressed,28.33333333,0.075,0.925,-1
2011_106324,2011,106324,Arkansas Beauty College,Russellville,AR,72801,5,35.278622,-93.13522,-1,-1,-1,0.76056338,26.3943662,0.0571,0.9429,-1
2011_106342,2011,106342,Lyon College,Batesville,AR,72501,5,35.778934,-91.628115,0.6471,1166,31045,0.912408759,21.00729927,0.46,0.54,-1
2011_106351,2011,106351,Arkansas College of Barbering and Hair Design,North Little Rock,AR,72114,5,34.753621,-92.266336,-1,-1,-1,0.929078014,26.0212766,0.4773,0.5227,-1
2011_106360,2011,106360,Arthur's Beauty College Inc-Fort Smith,Fort Smith,AR,72901-3342,5,35.379955,-94.410967,-1,-1,-1,PrivacySuppressed,25.20253165,0.12,0.88,-1
2011_106397,2011,106397,University of Arkansas,Fayetteville,AR,72701,5,36.06153,-94.178214,0.609,1157,18064,0.875909458,21.64928591,0.5108,0.4892,4172
2011_106412,2011,106412,University of Arkansas at Pine Bluff,Pine Bluff,AR,71601,5,34.242192,-92.021263,0.2937,847,15579,0.912172573,21.33898305,0.4336,0.5664,125
2011_106449,2011,106449,Arkansas State University-Beebe,Beebe,AR,72012-1000,5,35.074512,-91.896165,-1,-1,10114,0.486486487,24.8481982,0.396,0.604,-1
2011_106458,2011,106458,Arkansas State University-Main Campus,Jonesboro,AR,72401,5,35.842779,-90.680478,0.6325,1067,17770,0.770467836,24.47309942,0.4196,0.5804,3787
2011_106467,2011,106467,Arkansas Tech University,Russellville,AR,72801-2222,5,35.295227,-93.13233,0.9035,1029,15361,0.798418972,24.78279691,0.4481,0.5519,754
2011_106485,2011,106485,University of Arkansas at Monticello,Monticello,AR,71656,5,33.589788,-91.812971,-1,-1,14827,0.810313076,24.61915286,0.3988,0.6012,129
2011_106494,2011,106494,Arthur's Beauty College Inc-Jacksonville,Jacksonville,AR,72076,5,34.8918,-92.102284,-1,-1,-1,0.89453125,25.88671875,0.1017,0.8983,-1
2011_106546,2011,106546,Baptist Health College-Little Rock,Little Rock,AR,72210-2820,5,34.713115,-92.40692,0.6406,1010,17975,0.945945946,26.91769042,0.1408,0.8592,-1
2011_106625,2011,106625,Black River Technical College,Pocahontas,AR,72455,5,36.239793,-90.951033,-1,-1,13097,0.57792887,26.90115063,0.338,0.662,-1
2011_106704,2011,106704,University of Central Arkansas,Conway,AR,72035-0001,5,35.078196,-92.45931,0.9093,1070,18333,0.851567787,21.5966614,0.4262,0.5738,1534
2011_106713,2011,106713,Central Baptist College,Conway,AR,72034,5,35.084574,-92.444102,0.7437,990,19872,0.887700535,25.27094474,0.5203,0.4797,-1
2011_106795,2011,106795,Cossatot Community College of the University of Arkansas,De Queen,AR,71832,5,34.043389,-94.3673,-1,-1,10824,PrivacySuppressed,26.31635389,0.2841,0.7159,-1
2011_106810,2011,106810,Crowley's Ridge College,Paragould,AR,72450,5,36.066239,-90.58482,-1,-1,17141,0.911392405,20.41139241,0.5429,0.4571,-1
2011_106829,2011,106829,Crowley's Ridge Technical Institute,Forrest City,AR,72335-0925,5,35.041908,-90.767807,-1,-1,9411,PrivacySuppressed,27.33237822,0.5296,0.4704,-1
2011_106883,2011,106883,East Arkansas Community College,Forrest City,AR,72335-2204,5,35.039673,-90.767445,-1,-1,8527,0.169286578,24.03143894,0.3057,0.6943,-1
2011_106892,2011,106892,Eastern College of Health Vocations-Little Rock,Little Rock,AR,72205,5,34.75126,-92.341981,-1,-1,-1,0.745152355,27.22576177,0.0627,0.9373,-1
2011_106908,2011,106908,Imagine-Paul Mitchell Partner School,North Little Rock,AR,72117,5,34.791306,-92.221304,-1,-1,-1,0.896969697,24.13181818,0.0607,0.9393,-1
2011_106980,2011,106980,National Park College,Hot Springs,AR,71913,5,34.512731,-93.117111,-1,-1,13544,0.630989181,27.62867079,0.3663,0.6337,-1
2011_106999,2011,106999,University of Arkansas Community College-Batesville,Batesville,AR,72503-3350,5,35.79293,-91.616123,-1,-1,12636,0.449225473,26.38898451,0.3004,0.6996,-1
2011_107044,2011,107044,Harding University,Searcy,AR,72149-5615,5,35.249605,-91.729008,0.7218,1141,23751,0.935547843,20.85275161,0.4714,0.5286,2752
2011_107071,2011,107071,Henderson State University,Arkadelphia,AR,71999-0001,5,34.127792,-93.060313,0.5889,989,17175,0.844522968,22.46510601,0.444,0.556,397
2011_107080,2011,107080,Hendrix College,Conway,AR,72032-3080,5,35.09972,-92.442021,0.825,1292,44854,0.908898305,19.50847458,0.4204,0.5796,11
2011_107099,2011,107099,Hot Springs Beauty College,Hot Springs,AR,71901,5,34.496287,-93.038381,-1,-1,-1,0.510638298,27.04255319,0.0714,0.9286,-1
2011_107123,2011,107123,Jefferson Regional Medical Center School of Nursing,Pine Bluff,AR,71603,5,34.187831,-92.018045,0.6977,970,-1,0.828125,27.734375,0.2353,0.7647,-1
2011_107141,2011,107141,John Brown University,Siloam Springs,AR,72761,5,36.191077,-94.559088,0.7251,1165,30606,0.899019608,25.42745098,0.4408,0.5592,467
2011_107211,2011,107211,Lees School of Cosmetology,North  Little Rock,AR,72114-3800,5,34.781993,-92.296729,-1,-1,-1,0.688888889,26.62222222,0.05,0.95,-1
2011_107220,2011,107220,Career Academy of Hair Design,Springdale,AR,72764-7128,5,36.16757,-94.131834,-1,-1,-1,0.90886076,27.07341772,0.0651,0.9349,-1
2011_107275,2011,107275,Marsha Kay Beauty College,Mountain Home,AR,72653-3164,5,-1,-1,-1,-1,-1,PrivacySuppressed,29.52173913,0,1,-1
2011_107293,2011,107293,Academy of Salon and Spa,Fort Smith,AR,72901,5,35.380891,-94.416327,-1,-1,-1,PrivacySuppressed,27.32394366,0.0263,0.9737,-1
2011_107318,2011,107318,Arkansas State University Mid-South,West Memphis,AR,72301-3829,5,35.145736,-90.22285,-1,-1,10126,PrivacySuppressed,26.30548781,0.3354,0.6646,-1
2011_107327,2011,107327,Arkansas Northeastern College,Blytheville,AR,72316-1109,5,35.897362,-89.922491,-1,-1,12672,PrivacySuppressed,25.45833333,0.3145,0.6855,-1
2011_107363,2011,107363,Margaret's Hair Academy Inc,Monticello,AR,71655,5,33.629169,-91.7887,-1,-1,-1,0.533333333,25.72222222,0.1486,0.8514,-1
2011_107442,2011,107442,New Tyler Barber College Inc,North Little Rock,AR,72114-4973,5,34.759076,-92.254108,-1,-1,-1,0.767441861,26.40697674,0.5873,0.4127,-1
2011_107460,2011,107460,North Arkansas College,Harrison,AR,72601-5508,5,36.220528,-93.087317,-1,-1,11292,0.39796529,26.26810293,0.3833,0.6167,-1
2011_107488,2011,107488,Northwest Technical Institute,Springdale,AR,72764,5,36.178617,-94.116433,-1,-1,8739,PrivacySuppressed,28.96604938,0.6389,0.3611,-1
2011_107512,2011,107512,Ouachita Baptist University,Arkadelphia,AR,71998-0001,5,34.125045,-93.052442,0.6375,1099,29140,0.862222222,19.66518519,0.4701,0.5299,-1
2011_107521,2011,107521,College of the Ouachitas,Malvern,AR,72104-0816,5,34.378745,-92.821416,-1,-1,11549,0.472148541,28.41644562,0.3025,0.6975,-1
2011_107549,2011,107549,Ozarka College,Melbourne,AR,72556-0010,5,36.053031,-91.896355,-1,-1,12363,0.587443946,29.1935725,0.2951,0.7049,-1
2011_107558,2011,107558,University of the Ozarks,Clarksville,AR,72830,5,35.477785,-93.467924,0.8515,1059,31596,0.844192635,20.04249292,0.485,0.515,-1
2011_107585,2011,107585,University of Arkansas Community College-Morrilton,Morrilton,AR,72110,5,35.172136,-92.728507,-1,-1,10662,0.458646617,25.62943072,0.3961,0.6039,-1
2011_107600,2011,107600,Philander Smith College,Little Rock,AR,72202-3799,5,34.73666,-92.28242,0.68,869,20107,0.951737452,23.20463321,0.3503,0.6497,-1
2011_107619,2011,107619,Phillips Community College of the University of Arkansas,Helena,AR,72342-0785,5,34.544976,-90.617745,-1,-1,15921,0.08137045,23.75588865,0.2811,0.7189,-1
2011_107637,2011,107637,Southeast Arkansas College,Pine Bluff,AR,71603,5,34.209797,-92.024731,-1,-1,12639,0.486449865,26.88346884,0.296,0.704,-1
2011_107655,2011,107655,Professional Cosmetology Education Center,El Dorado,AR,71730-4009,5,33.215124,-92.663131,-1,-1,-1,0.850574713,27.40229885,0.0364,0.9636,-1
2011_107664,2011,107664,Pulaski Technical College,North Little Rock,AR,72118-3347,5,34.78243,-92.299729,-1,-1,13677,0.84522003,28.72610015,0.3346,0.6654,-1
2011_107725,2011,107725,University of Arkansas Community College-Hope,Hope,AR,71801,5,33.64791,-93.584528,-1,-1,12160,0.06612411,26.99694812,0.3356,0.6644,-1
2011_107743,2011,107743,Rich Mountain Community College,Mena,AR,71953,5,34.590793,-94.2197,-1,-1,9754,PrivacySuppressed,26.34513274,0.3264,0.6736,-1
2011_107789,2011,107789,Paul Mitchell the School-Arkansas,Fayetteville,AR,72703,5,36.12681,-94.154191,-1,-1,-1,0.895424837,24.4379085,0.0579,0.9421,-1
2011_107831,2011,107831,Searcy Beauty College,Searcy,AR,72143,5,35.237723,-91.73454,-1,-1,-1,0.882978723,25.28723404,0.0381,0.9619,-1
2011_107877,2011,107877,Williams Baptist College,Walnut Ridge,AR,72476,5,36.126825,-90.939876,0.585,1010,20545,0.84754522,21.39793282,0.4159,0.5841,-1
2011_107974,2011,107974,South Arkansas Community College,El Dorado,AR,71731-7010,5,33.209446,-92.666087,-1,-1,12823,0.580395529,27.40326741,0.226,0.774,-1
2011_107983,2011,107983,Southern Arkansas University Main Campus,Magnolia,AR,71753,5,33.291195,-93.235087,0.6687,1010,16466,0.786627907,22.61162791,0.4224,0.5776,461
2011_107992,2011,107992,Southern Arkansas University Tech,Camden,AR,71701-1906,5,33.63037,-92.719498,-1,-1,13779,0.525029104,26.37834692,0.4554,0.5446,-1
2011_108065,2011,108065,Velvatex College of Beauty Culture,Little Rock,AR,72202-5452,5,34.735724,-92.289758,-1,-1,-1,PrivacySuppressed,29.81818182,0.125,0.875,-1
2011_108092,2011,108092,University of Arkansas-Fort Smith,Fort Smith,AR,72913-3649,5,35.385345,-94.374073,0.559,1010,14353,0.659680639,24.46232535,0.4159,0.5841,-1
2011_108232,2011,108232,Academy of Art University,San Francisco,CA,94105,8,37.787748,-122.400686,-1,-1,34399,0.956042296,25.31374622,0.4349,0.5651,5888
2011_108250,2011,108250,ITT Technical Institute-Rancho Cordova,Rancho Cordova,CA,95670-6034,8,38.59172,-121.281506,0.7669,-1,25652,0.840442539,29.29226826,0.8348,0.1652,-1
2011_108269,2011,108269,Academy of Chinese Culture and Health Sciences,Oakland,CA,94612,8,37.806662,-122.272733,-1,-1,-1,-1,-1,-1,-1,111
2011_108348,2011,108348,The Academy of Radio and TV Broadcasting,Huntington Beach,CA,92647,8,33.728895,-117.987666,-1,-1,-1,0.876712329,28.15525114,0.5574,0.4426,-1
2011_108649,2011,108649,Avalon School of Cosmetology-Alameda,Alameda,CA,94501,8,37.764203,-122.243566,-1,-1,-1,0.960159363,25.01593626,0.0214,0.9786,-1
2011_108667,2011,108667,College of Alameda,Alameda,CA,94501,8,37.78239,-122.279261,-1,-1,10977,0.063806381,26.29647965,0.4586,0.5414,-1
2011_108807,2011,108807,Allan Hancock College,Santa Maria,CA,93454-6399,8,34.942979,-120.421486,-1,-1,9493,0.088522589,24.43956044,0.4749,0.5251,-1
2011_108852,2011,108852,American Academy of Dramatic Arts-Los Angeles,Los Angeles,CA,90028,8,34.095315,-118.344097,0.4582,-1,37393,0.903010033,21.62876254,0.4615,0.5385,-1
2011_108861,2011,108861,American Baptist Seminary of the West,Berkeley,CA,94704-3029,8,37.865252,-122.256149,-1,-1,-1,PrivacySuppressed,PrivacySuppressed,-1,-1,58
2011_108870,2011,108870,American Film Institute Conservatory,Los Angeles,CA,90027-1625,8,34.10846,-118.309989,-1,-1,-1,PrivacySuppressed,PrivacySuppressed,-1,-1,349
2011_108977,2011,108977,American Beauty College,West Covina,CA,91790,8,33.884391,-118.125036,-1,-1,-1,0.660869565,25.66956522,0.1522,0.8478,-1
2011_109040,2011,109040,American Career College-Los Angeles,Los Angeles,CA,90004,8,34.079236,-118.292282,-1,-1,-1,0.919114107,25.41100947,0.2309,0.7691,-1
2011_109086,2011,109086,American Conservatory Theater,San Francisco,CA,94108-5834,8,37.787326,-122.404945,-1,-1,-1,PrivacySuppressed,PrivacySuppressed,1,0,25
2011_109208,2011,109208,American River College,Sacramento,CA,95841-4286,8,38.649734,-121.346012,-1,-1,11078,0.279498401,27.64442013,0.4641,0.5359,-1
2011_109332,2011,109332,Everest College-Hayward,Hayward,CA,94541,8,-1,-1,-1,-1,-1,0.883677298,27.36210131,0.1103,0.8897,-1
2011_109350,2011,109350,Antelope Valley College,Lancaster,CA,93536-5426,8,34.676207,-118.186166,-1,-1,11744,0.351000881,26.36497545,0.4135,0.5865,-1
2011_109651,2011,109651,Art Center College of Design,Pasadena,CA,91103,8,34.170844,-118.186901,0.6321,-1,54019,0.918732782,22.92699725,0.5256,0.4744,192
2011_109721,2011,109721,Associated Technical College-Los Angeles,Los Angeles,CA,90017-1604,8,34.055987,-118.27243,-1,-1,-1,0.679943101,30.05832148,0.5451,0.4549,-1
2011_109730,2011,109730,Associated Technical College-San Diego,San Diego,CA,92101,8,32.715658,-117.158203,-1,-1,-1,0.809638554,30.05060241,0.7628,0.2372,-1
2011_109785,2011,109785,Azusa Pacific University,Azusa,CA,91702-7000,8,34.130865,-117.88795,0.5063,1098,41514,0.943936775,24.87898247,0.3626,0.6374,3931
2011_109819,2011,109819,Bakersfield College,Bakersfield,CA,93305-1299,8,35.4108,-118.973491,-1,-1,7966,0.093732096,24.22378824,0.4445,0.5555,-1
2011_109891,2011,109891,Bridges Academy of Beauty,Barstow,CA,92311,8,-1,-1,-1,-1,-1,PrivacySuppressed,24.75,0,1,-1
2011_109907,2011,109907,Barstow Community College,Barstow,CA,92311,8,34.871451,-117.02523,-1,-1,14384,PrivacySuppressed,28.73309179,0.409,0.591,-1
2011_109934,2011,109934,Bellus Academy-National City,National City,CA,91950,8,32.676762,-117.090235,-1,-1,-1,0.883870968,25.23548387,0.0492,0.9508,-1
2011_110060,2011,110060,Bethesda University,Anaheim,CA,92801,8,33.842295,-117.941323,0.7548,-1,16395,0.638655462,28.5210084,0.5256,0.4744,97
2011_110097,2011,110097,Biola University,La Mirada,CA,90639-0001,8,33.904823,-118.017342,0.7668,1115,41843,0.951620948,20.17306733,0.3873,0.6127,1979
2011_110185,2011,110185,Brooks Institute,Ventura,CA,93001,8,34.33851,-119.295231,0.9833,-1,34322,0.949579832,23.69117647,0.559,0.441,46
2011_110194,2011,110194,Brownson Technical School,Anaheim,CA,92805,8,33.819,-117.906409,-1,-1,-1,0.887323944,31.67323944,1,0,-1
2011_110219,2011,110219,Bryan University,Los Angeles,CA,90010,8,34.061406,-118.302882,-1,-1,24617,0.92405914,32.65255376,0.1821,0.8179,-1
2011_110246,2011,110246,Butte College,Oroville,CA,95965-8399,8,39.649116,-121.644691,-1,-1,12122,0.301005322,25.02158486,0.4679,0.5321,-1
2011_110307,2011,110307,Phillips Graduate University,Chatsworth,CA,91311,8,34.24203,-118.567631,-1,-1,-1,-1,-1,-1,-1,240
2011_110316,2011,110316,California Institute of Integral Studies,San Francisco,CA,94103,8,37.774768,-122.416537,-1,-1,-1,PrivacySuppressed,35.76351351,0.2025,0.7975,1344
2011_110334,2011,110334,Cabrillo College,Aptos,CA,95003,8,36.9891,-121.927926,-1,-1,12410,0.161823647,25.59443888,0.4741,0.5259,-1
2011_110361,2011,110361,California Baptist University,Riverside,CA,92504-3297,8,33.928569,-117.42587,0.7406,976,36439,0.944577591,23.57968844,0.3729,0.6271,1010
2011_110370,2011,110370,California College of the Arts,San Francisco,CA,94107-2247,8,37.76723,-122.399941,0.7626,-1,49375,0.944262295,22.42295082,0.3923,0.6077,490
2011_110398,2011,110398,University of California-Hastings College of Law,San Francisco,CA,94102-4978,8,37.780718,-122.415395,-1,-1,-1,PrivacySuppressed,PrivacySuppressed,-1,-1,1289
2011_110404,2011,110404,California Institute of Technology,Pasadena,CA,91125,8,34.139275,-118.12574,0.1277,1520,52389,0.779904306,19.32057416,0.6104,0.3896,1253
2011_110413,2011,110413,California Lutheran University,Thousand Oaks,CA,91360-2787,8,34.225551,-118.879467,0.4399,1115,44254,0.931593794,22.45768688,0.436,0.564,1390
2011_110422,2011,110422,California Polytechnic State University-San Luis Obispo,San Luis Obispo,CA,93407,8,35.29889,-120.65856,0.3254,1222,21479,0.868226601,20.17487685,0.554,0.446,1037
2011_110468,2011,110468,Alliant International University-San Diego,San Diego,CA,92131,8,32.897056,-117.094398,-1,-1,-1,0.98381877,30.08737864,0.3836,0.6164,3689
2011_110486,2011,110486,California State University-Bakersfield,Bakersfield,CA,93311-1099,8,35.350005,-119.104711,0.6627,921,15517,0.688179505,23.58963683,0.3857,0.6143,1139
2011_110495,2011,110495,California State University-Stanislaus,Turlock,CA,95382-0299,8,37.52577,-120.852511,0.3356,927,15474,0.711896349,23.13663133,0.3611,0.6389,1324
2011_110510,2011,110510,California State University-San Bernardino,San Bernardino,CA,92407-2397,8,34.182987,-117.322508,0.1906,905,16516,0.739074218,23.41259374,0.3732,0.6268,2366
2011_110529,2011,110529,California State Polytechnic University-Pomona,Pomona,CA,91768,8,34.054273,-117.819019,0.4465,1086,15424,0.709807074,22.27505359,0.5739,0.4261,1708
2011_110538,2011,110538,California State University-Chico,Chico,CA,95929-0150,8,39.728003,-121.846333,0.6222,1039,20730,0.837942664,22.4613828,0.486,0.514,1154
2011_110547,2011,110547,California State University-Dominguez Hills,Carson,CA,90747-0005,8,33.86524,-118.259316,0.5793,840,11281,0.680661776,25.60184174,0.3577,0.6423,2728
2011_110556,2011,110556,California State University-Fresno,Fresno,CA,93740,8,36.814477,-119.748258,0.5591,931,15479,0.648045977,22.55988506,0.4319,0.5681,2849
2011_110565,2011,110565,California State University-Fullerton,Fullerton,CA,92831-3599,8,33.883627,-117.885349,0.4515,998,13476,0.67297114,22.83354683,0.4363,0.5637,5374
2011_110574,2011,110574,California State University-East Bay,Hayward,CA,94542,8,37.65707,-122.058073,0.2197,914,18698,0.719637158,25.12195532,0.398,0.602,2442
2011_110583,2011,110583,California State University-Long Beach,Long Beach,CA,90840-0115,8,33.782752,-118.1123,0.3444,1021,16087,0.734274317,22.3328475,0.4192,0.5808,5499
2011_110592,2011,110592,California State University-Los Angeles,Los Angeles,CA,90032-8506,8,34.066927,-118.168965,0.5717,876,13161,0.620952381,23.60772487,0.4082,0.5918,3885
2011_110608,2011,110608,California State University-Northridge,Northridge,CA,91330,8,34.23671,-118.526817,0.7354,925,19660,0.676112089,22.37151294,0.4459,0.5541,5018
2011_110617,2011,110617,California State University-Sacramento,Sacramento,CA,95819-2694,8,38.55745,-121.42194,0.7085,954,18655,0.715216683,23.61412512,0.4317,0.5683,3186
2011_110635,2011,110635,University of California-Berkeley,Berkeley,CA,94720,8,37.871969,-122.260423,0.2143,1349,30800,0.771266073,21.09878833,0.4723,0.5277,10252
2011_110644,2011,110644,University of California-Davis,Davis,CA,95616-8678,8,38.539895,-121.751958,0.4627,1202,28950,0.82575005,20.81611365,0.4504,0.5496,6694
2011_110653,2011,110653,University of California-Irvine,Irvine,CA,92697,8,33.648434,-117.841248,0.4521,1179,27346,0.818920676,20.27340702,0.4576,0.5424,5185
2011_110662,2011,110662,University of California-Los Angeles,Los Angeles,CA,90095-1405,8,34.068892,-118.443901,0.2554,1289,29240,0.798345607,20.89962675,0.4518,0.5482,12072
2011_110671,2011,110671,University of California-Riverside,Riverside,CA,92521,8,33.97588,-117.331098,0.7588,1037,27146,0.826938871,20.3105714,0.4816,0.5184,2378
2011_110680,2011,110680,University of California-San Diego,La Jolla,CA,92093,8,32.876598,-117.237793,0.3788,1268,27700,0.85660923,20.6880347,0.4948,0.5052,5547
2011_110699,2011,110699,University of California-San Francisco,San Francisco,CA,94143-0244,8,37.762736,-122.458049,-1,-1,-1,PrivacySuppressed,26.92592593,-1,-1,3054
2011_110705,2011,110705,University of California-Santa Barbara,Santa Barbara,CA,93106,8,34.416281,-119.846404,0.4547,1205,30224,0.866695677,19.99564839,0.4757,0.5243,3065
2011_110714,2011,110714,University of California-Santa Cruz,Santa Cruz,CA,95064-1011,8,36.997258,-122.067993,0.6382,1126,30670,0.893724847,20.3738262,0.4775,0.5225,1509
2011_110778,2011,110778,Sofia University,Palo Alto,CA,94303,8,37.430325,-122.10866,-1,-1,-1,PrivacySuppressed,PrivacySuppressed,-1,-1,502
2011_110875,2011,110875,California Beauty School,Modesto,CA,95354,8,37.645217,-120.99689,-1,-1,-1,0.841269841,22.85714286,0,1,-1
2011_110918,2011,110918,California Christian College,Fresno,CA,93727,8,36.75031,-119.711208,0.9231,-1,23145,PrivacySuppressed,28.46428571,0.5,0.5,-1
2011_110945,2011,110945,California College San Diego,San Diego,CA,92111-1009,8,-1,-1,-1,-1,25240,0.821767714,28.06574142,0.3938,0.6062,-1
2011_111009,2011,111009,Le Cordon Bleu College of Culinary Arts-San Francisco,San Francisco,CA,94103,8,37.765415,-122.402643,-1,-1,32570,0.883371825,26.09006928,0.5634,0.4366,-1
2011_111054,2011,111054,California Hair Design Academy,La Mesa,CA,91941-5055,8,32.765221,-117.024261,-1,-1,-1,0.92917847,26.00566572,0.0579,0.9421,-1
2011_111081,2011,111081,California Institute of the Arts,Valencia,CA,91355-2397,8,34.393337,-118.567303,0.2692,-1,53643,0.961928934,21.23350254,0.479,0.521,524
2011_111188,2011,111188,California State University Maritime Academy,Vallejo,CA,94590,8,38.069061,-122.231551,0.6907,1065,20707,0.946987952,22.22168675,0.857,0.143,-1
2011_111391,2011,111391,California Western School of Law,San Diego,CA,92101-3046,8,32.72194,-117.162597,-1,-1,-1,PrivacySuppressed,PrivacySuppressed,-1,-1,902
2011_111434,2011,111434,Canada College,Redwood City,CA,94061-1099,8,37.447365,-122.265549,-1,-1,9895,0.114720111,27.15825847,0.3525,0.6475,-1
2011_111461,2011,111461,College of the Canyons,Santa Clarita,CA,91355-1899,8,34.403121,-118.569524,-1,-1,9677,0.288560411,24.47386461,0.5109,0.4891,-1
2011_111513,2011,111513,Career Academy of Beauty,Garden Grove,CA,92845,8,33.781018,-118.031697,-1,-1,-1,0.912587413,27.13986014,0.0193,0.9807,-1
2011_111638,2011,111638,Casa Loma College-Van Nuys,Van Nuys,CA,91405,8,34.195438,-118.448335,-1,-1,-1,0.90842872,26.41935484,0.1866,0.8134,-1
2011_111708,2011,111708,CET-San Diego,San Diego,CA,92102,8,32.711715,-117.122496,-1,-1,-1,0.709245946,31.07925096,0.8154,0.1846,-1
2011_111717,2011,111717,CET-Sobrato,San Jose,CA,95110,8,37.322723,-121.88698,-1,-1,-1,0.709245946,31.07925096,0.5556,0.4444,-1
2011_111726,2011,111726,CET-El Centro,El Centro,CA,92243,8,32.790908,-115.549079,-1,-1,-1,0.709245946,31.07925096,0.6718,0.3282,-1
2011_111744,2011,111744,CET-Colton,Colton,CA,92324,8,34.075136,-117.268738,-1,-1,-1,0.709245946,31.07925096,0.9516,0.0484,-1
2011_111762,2011,111762,CET-Watsonville,Watsonville,CA,95076,8,36.931833,-121.767991,-1,-1,-1,0.709245946,31.07925096,0.6386,0.3614,-1
2011_111771,2011,111771,CET-Gilroy,Gilroy,CA,95020,8,-1,-1,-1,-1,-1,0.709245946,31.07925096,0.669,0.331,-1
2011_111799,2011,111799,CET-Salinas,Salinas,CA,93901,8,36.671635,-121.652791,-1,-1,-1,0.709245946,31.07925096,0.4375,0.5625,-1
2011_111887,2011,111887,Cerritos College,Norwalk,CA,90650-6298,8,33.88584,-118.097263,-1,-1,7973,0.10233308,23.65221927,0.4516,0.5484,-1
2011_111896,2011,111896,Cerro Coso Community College,Ridgecrest,CA,93555-9571,8,35.567763,-117.667706,-1,-1,11853,PrivacySuppressed,29.08326848,0.3849,0.6151,-1
2011_111920,2011,111920,Chabot College,Hayward,CA,94545,8,37.642513,-122.106969,-1,-1,12465,0.094790603,25.42390194,0.4584,0.5416,-1
2011_111939,2011,111939,Chaffey College,Rancho Cucamonga,CA,91737-3002,8,34.14705,-117.573086,-1,-1,13237,PrivacySuppressed,24.43223901,0.4107,0.5893,-1
2011_111948,2011,111948,Chapman University,Orange,CA,92866,8,33.793678,-117.851481,0.4485,1208,53733,0.949761802,20.49718493,0.4317,0.5683,1855
2011_111966,2011,111966,Charles R Drew University of Medicine and Science,Los Angeles,CA,90059,8,33.925658,-118.242791,-1,-1,27900,PrivacySuppressed,28.96747968,0.4574,0.5426,314
2011_112075,2011,112075,Concordia University-Irvine,Irvine,CA,92612-3203,8,33.6535,-117.81063,0.7597,1017,38324,0.951067616,22.93327402,0.4083,0.5917,1622
2011_112084,2011,112084,San Diego Christian College,Santee,CA,92071,8,32.84281,-116.978151,0.3946,973,35943,0.940639269,29.15372907,0.4797,0.5203,13
2011_112127,2011,112127,Church Divinity School of the Pacific,Berkeley,CA,94709-1211,8,37.876169,-122.261391,-1,-1,-1,-1,-1,-1,-1,76
2011_112172,2011,112172,Citrus College,Glendora,CA,91741-1899,8,34.135487,-117.885266,-1,-1,8321,0.104078243,23.37165529,0.4549,0.5451,-1
2011_112190,2011,112190,City College of San Francisco,San Francisco,CA,94112-1898,8,37.725953,-122.451155,-1,-1,9162,0.185228605,27.07708089,0.4741,0.5259,-1
2011_112251,2011,112251,Claremont Graduate University,Claremont,CA,91711-6160,8,34.103778,-117.712394,-1,-1,-1,PrivacySuppressed,35,-1,-1,2177
2011_112260,2011,112260,Claremont McKenna College,Claremont,CA,91711-6400,8,34.102323,-117.706593,0.1412,1392,55330,0.592783505,19.44845361,0.5271,0.4729,20
2011_112288,2011,112288,Milan Institute-Visalia,Visalia,CA,93277,8,36.27164,-119.312151,-1,-1,-1,0.931681682,25.92267267,0.0841,0.9159,-1
2011_112367,2011,112367,Clovis Adult Education,Clovis,CA,93611,8,36.836915,-119.69019,-1,-1,-1,PrivacySuppressed,30.49753695,0.1577,0.8423,-1
2011_112385,2011,112385,Coastline Community College,Fountain Valley,CA,92708-2597,8,33.609771,-117.861844,-1,-1,8870,0.290364164,34.37222043,0.4783,0.5217,-1
2011_112394,2011,112394,Cogswell College,San Jose,CA,95134,8,37.413664,-121.940553,0.5411,1069,33058,0.938864629,23.17467249,0.8029,0.1971,-1
2011_112446,2011,112446,Coleman University,San Diego,CA,92123-1506,8,32.821962,-117.136493,1,-1,29887,0.813021703,29.5442404,0.8981,0.1019,95
2011_112455,2011,112455,Coba Cosmetology Academy,Orange,CA,92866,8,33.788258,-117.85348,-1,-1,-1,0.820895522,22.74626866,0.0923,0.9077,-1
2011_112525,2011,112525,Western University of Health Sciences,Pomona,CA,91766-1854,8,34.058092,-117.747732,-1,-1,-1,PrivacySuppressed,27.875,-1,-1,3247
2011_112561,2011,112561,Columbia College,Sonora,CA,95370,8,38.030361,-120.387603,-1,-1,9608,PrivacySuppressed,26.44179105,0.4361,0.5639,-1
2011_112570,2011,112570,Columbia College-Hollywood,Tarzana,CA,91356-1411,8,34.179596,-118.538394,0.6364,-1,30368,PrivacySuppressed,22.58461539,0.7102,0.2898,-1
2011_112686,2011,112686,El Camino College-Compton Center,Compton,CA,90221-5393,8,33.876665,-118.209186,-1,-1,12789,0.058727421,24.46337478,0.3518,0.6482,-1
2011_112783,2011,112783,Western Beauty Institute,Panorama City,CA,91402,8,-1,-1,-1,-1,-1,0.869449378,26.96358792,0.3299,0.6701,-1
2011_112826,2011,112826,Contra Costa College,San Pablo,CA,94806-3195,8,37.968623,-122.342386,-1,-1,14613,0.107568325,27.52312544,0.3857,0.6143,-1
2011_113096,2011,113096,Cosumnes River College,Sacramento,CA,95823-5799,8,38.453836,-121.422971,-1,-1,12714,0.225657895,26.19868421,0.4354,0.5646,-1
2011_113111,2011,113111,Crafton Hills College,Yucaipa,CA,92339-1799,8,34.038513,-117.100826,-1,-1,13639,PrivacySuppressed,23.57047388,0.4908,0.5092,-1
2011_113193,2011,113193,Cuesta College,San Luis Obispo,CA,93403-8106,8,35.329859,-120.741624,-1,-1,13137,0.290386131,24.82742317,0.4871,0.5129,-1
2011_113218,2011,113218,Cuyamaca College,El Cajon,CA,92019,8,32.743072,-116.941044,-1,-1,7894,0.087992061,28.74760172,0.4526,0.5474,-1
2011_113227,2011,113227,Marinello Schools of Beauty-Bell,Bell,CA,90201,8,-1,-1,-1,-1,-1,0.884615385,22.59615385,0.0519,0.9481,-1
2011_113236,2011,113236,Cypress College,Cypress,CA,90630-5897,8,33.827625,-118.023889,-1,-1,8759,0.127786318,24.36106841,0.4475,0.5525,-1
2011_113333,2011,113333,De Anza College,Cupertino,CA,95014,8,37.319176,-122.045365,-1,-1,9247,0.299299512,23.67161961,0.5068,0.4932,-1
2011_113397,2011,113397,Marinello Schools of Beauty-Hemet,Hemet,CA,92545,8,-1,-1,-1,-1,-1,0.80056338,25.13802817,0.0706,0.9294,-1
2011_113449,2011,113449,International School of Beauty Inc,Palm Desert,CA,92260-2740,8,33.729555,-116.403928,-1,-1,-1,0.925110132,27.38325991,0.2574,0.7426,-1
2011_113537,2011,113537,Dell'Arte International School of Physical Theatre,Blue Lake,CA,95525-0816,8,40.880871,-123.988878,0.7778,-1,-1,PrivacySuppressed,26.31034483,0.4194,0.5806,13
2011_113573,2011,113573,College of the Desert,Palm Desert,CA,92260,8,33.732484,-116.38761,-1,-1,12921,0.093306738,24.64117908,0.4565,0.5435,-1
2011_113582,2011,113582,Design Institute of San Diego,San Diego,CA,92121,8,32.731022,-117.149808,-1,-1,33201,0.903225807,28.38709677,0.0837,0.9163,-1
2011_113607,2011,113607,DeVry University-California,Pomona,CA,91768-2642,8,-1,-1,0.9105,-1,28778,0.912549983,29.74661522,0.6333,0.3667,-1
2011_113634,2011,113634,Diablo Valley College,Pleasant Hill,CA,94523,8,37.968035,-122.069861,-1,-1,13280,0.087047562,24.83009273,0.4844,0.5156,-1
2011_113698,2011,113698,Dominican University of California,San Rafael,CA,94901-2298,8,37.980014,-122.514654,0.5373,1066,53169,0.967818832,23.31108463,0.2688,0.7312,616
2011_113704,2011,113704,Dominican School of Philosophy & Theology,Berkeley,CA,94708-1816,8,37.881099,-122.264612,-1,-1,-1,-1,-1,-1,-1,97
2011_113856,2011,113856,East Los Angeles College,Monterey Park,CA,91754-6099,8,34.039205,-118.148384,-1,-1,13395,0.056705336,23.43656613,0.5132,0.4868,-1
2011_113908,2011,113908,Marinello Schools of Beauty-Santa Clara,Santa Clara,CA,95050,8,-1,-1,-1,-1,-1,0.905160391,25.28451883,0.0744,0.9256,-1
2011_113953,2011,113953,San Diego Continuing Education,San Diego,CA,92113,8,-1,-1,-1,-1,-1,PrivacySuppressed,37.9569378,0.3833,0.6167,-1
2011_113980,2011,113980,El Camino Community College District,Torrance,CA,90506,8,33.885586,-118.326623,-1,-1,15365,0.058727421,24.46337478,0.4773,0.5227,-1
2011_114044,2011,114044,Elegance International,Hollywood,CA,90028-6106,8,34.062216,-118.338332,-1,-1,-1,0.903954802,23.42372881,0.0826,0.9174,-1
2011_114062,2011,114062,Marinello Schools of Beauty-City of Industry,City of Industry,CA,91748,8,-1,-1,-1,-1,-1,0.892703863,28.85407725,0.0159,0.9841,-1
2011_114071,2011,114071,Marinello Schools of Beauty-Burbank,Burbank,CA,91502,8,-1,-1,-1,-1,-1,0.935185185,26.81481482,0.0479,0.9521,-1
2011_114080,2011,114080,Marinello Schools of Beauty-Moreno Valley,Moreno Valley,CA,92553,8,-1,-1,-1,-1,-1,0.903387704,25.30112924,0.0616,0.9384,-1
2011_114114,2011,114114,Emperor's College of Traditional Oriental Medicine,Santa Monica,CA,90403,8,34.0303,-118.4847,-1,-1,-1,PrivacySuppressed,PrivacySuppressed,-1,-1,243
2011_114123,2011,114123,Empire College,Santa Rosa,CA,95403-2126,8,38.467789,-122.728642,-1,-1,-1,0.927536232,28.81803543,0.2276,0.7724,-1
2011_114266,2011,114266,Evergreen Valley College,San Jose,CA,95135-1598,8,37.301736,-121.766686,-1,-1,13474,0.067520373,26.18015134,0.4801,0.5199,-1
2011_114354,2011,114354,FIDM-Fashion Institute of Design & Merchandising-Los Angeles,Los Angeles,CA,90015-1421,8,34.044209,-118.25993,0.6325,-1,39798,0.97989155,21.45142341,0.1184,0.8816,-1
2011_114372,2011,114372,Fashion Careers College,San Diego,CA,921103555,8,-1,-1,-1,-1,30576,PrivacySuppressed,24.20987654,0.134,0.866,-1
2011_114390,2011,114390,FIDM-Fashion Institute of Design & Merchandising-San Francisco,San Francisco,CA,94108-5805,8,37.786324,-122.406503,0.7545,-1,40198,0.97989155,21.45142341,0.0937,0.9063,-1
2011_114415,2011,114415,FIDM-Fashion Institute of Design & Merchandising-Orange County,Irvine,CA,92614-5610,8,33.691963,-117.852254,0.7143,-1,36012,0.97989155,21.45142341,0.1203,0.8797,-1
2011_114433,2011,114433,Feather River Community College District,Quincy,CA,95971-9124,8,39.952395,-120.970877,-1,-1,13762,0.558673469,24.85714286,0.4738,0.5262,-1
2011_114460,2011,114460,Federico Beauty Institute,Sacramento,CA,95834,8,38.64883,-121.497761,-1,-1,-1,0.955729167,24.91145833,0.0202,0.9798,-1
2011_114549,2011,114549,Fielding Graduate University,Santa Barbara,CA,93105-3538,8,34.42941,-119.717161,-1,-1,-1,PrivacySuppressed,PrivacySuppressed,-1,-1,1360
2011_114585,2011,114585,Five Branches University,Santa Cruz,CA,95062,8,36.964133,-121.998478,-1,-1,-1,PrivacySuppressed,37.35294118,-1,-1,341
2011_114628,2011,114628,Hair California Beauty Academy,Orange,CA,92867,8,-1,-1,-1,-1,-1,PrivacySuppressed,28.85714286,0.0964,0.9036,-1
2011_114716,2011,114716,Foothill College,Los Altos Hills,CA,94022,8,37.361104,-122.12833,-1,-1,10675,0.431885281,26.23660903,0.4864,0.5136,-1
2011_114734,2011,114734,Franciscan School of Theology,Oceanside,CA,92057,8,33.23023,-117.319616,-1,-1,-1,-1,-1,-1,-1,48
2011_114761,2011,114761,Fredrick and Charles Beauty College,Eureka,CA,95501,8,40.798811,-124.165778,-1,-1,-1,PrivacySuppressed,23.64,0.027,0.973,-1
2011_114789,2011,114789,Fresno City College,Fresno,CA,93741,8,36.767516,-119.795129,-1,-1,9856,0.105613795,23.70167532,0.4611,0.5389,-1
2011_114813,2011,114813,Fresno Pacific University,Fresno,CA,93702-4709,8,36.725279,-119.731953,0.4455,998,32745,0.899122807,28.13937622,0.3321,0.6679,1048
2011_114840,2011,114840,Fuller Theological Seminary in California,Pasadena,CA,91182,8,34.14778,-118.140261,-1,-1,-1,PrivacySuppressed,PrivacySuppressed,-1,-1,2958
2011_114859,2011,114859,Fullerton College,Fullerton,CA,92832-2095,8,33.876794,-117.916986,-1,-1,8378,0.11976912,22.96681097,0.492,0.508,-1
2011_114895,2011,114895,Galen College of Medical and Dental Assistants,Clovis,CA,93611-4002,8,-1,-1,-1,-1,-1,0.917647059,25.41764706,0.1385,0.8615,-1
2011_114938,2011,114938,Gavilan College,Gilroy,CA,95020,8,36.973274,-121.568174,-1,-1,10147,0.179207921,24.86485149,0.5278,0.4722,-1
2011_114947,2011,114947,Gemological Institute of America-Carlsbad,Carlsbad,CA,92008,8,33.131313,-117.318765,-1,-1,-1,PrivacySuppressed,28.54961832,0.3337,0.6663,-1
2011_115001,2011,115001,Glendale Community College,Glendale,CA,91208-2894,8,34.166422,-118.228251,-1,-1,8874,0.104068262,26.91726345,0.453,0.547,-1
2011_115010,2011,115010,Glendale Career College,Glendale,CA,91203,8,34.1497,-118.254231,-1,-1,-1,0.918851436,28.35330837,0.2964,0.7036,-1
2011_115083,2011,115083,Golden Gate University-San Francisco,San Francisco,CA,94105-2968,8,37.789208,-122.398785,-1,-1,-1,0.96656535,34.69908815,0.4549,0.5451,3095
2011_115126,2011,115126,Golden West College,Huntington Beach,CA,92647-2710,8,33.733775,-118.003036,-1,-1,11256,0.117974919,24.56479331,0.4587,0.5413,-1
2011_115214,2011,115214,Graduate Theological Union,Berkeley,CA,94709,8,37.87554,-122.261847,-1,-1,-1,PrivacySuppressed,PrivacySuppressed,-1,-1,255
2011_115296,2011,115296,Grossmont College,El Cajon,CA,92020-1799,8,32.816077,-117.007292,-1,-1,6509,0.119478761,25.68691826,0.4447,0.5553,-1
2011_115357,2011,115357,Salon Success Academy-Riverside,Riverside,CA,92506,8,33.94297,-117.391021,-1,-1,-1,PrivacySuppressed,23.64912281,0.125,0.875,-1
2011_115393,2011,115393,Hartnell College,Salinas,CA,93901,8,36.673052,-121.668763,-1,-1,13696,0.033802817,24.09796557,0.4989,0.5011,-1
2011_115409,2011,115409,Harvey Mudd College,Claremont,CA,91711,8,34.106137,-117.710594,0.2099,1497,55288,PrivacySuppressed,19.13131313,0.5797,0.4203,-1
2011_115454,2011,115454,Heald College-Rancho Cordova,Rancho Cordova,CA,95670,8,-1,-1,0.8337,-1,24959,0.883524141,27.67894475,0.3039,0.6961,-1
2011_115472,2011,115472,Heald College-Fresno,Fresno,CA,93704,8,-1,-1,0.8748,-1,24640,0.867604733,26.02590342,0.303,0.697,-1
2011_115490,2011,115490,Heald College-San Jose,Milpitas,CA,95035-8008,8,-1,-1,0.8682,-1,24083,0.887472528,26.9221978,0.3461,0.6539,-1
2011_115515,2011,115515,Heald College-San Francisco,San Francisco,CA,94103,8,-1,-1,0.8496,-1,25430,0.735589942,27.66102515,0.3271,0.6729,-1
2011_115533,2011,115533,Heald College-Concord,Concord,CA,94520-0522,8,-1,-1,0.8221,-1,23993,0.90159003,27.52685862,0.2782,0.7218,-1
2011_115658,2011,115658,Hilltop Beauty School,Daly City,CA,94014,8,37.705545,-122.461674,-1,-1,-1,PrivacySuppressed,32.76502732,0.0864,0.9136,-1
2011_115728,2011,115728,Holy Names University,Oakland,CA,94619-1699,8,37.802654,-122.18717,0.6398,913,42438,0.961165049,26.1828479,0.2816,0.7184,496
2011_115746,2011,115746,Pacifica Graduate Institute,Carpinteria,CA,93013,8,34.420464,-119.580264,-1,-1,-1,-1,-1,-1,-1,674
2011_115755,2011,115755,Humboldt State University,Arcata,CA,95521-8299,8,40.8741,-124.0814,0.8274,1030,20650,0.857870606,22.38181355,0.469,0.531,613
2011_115773,2011,115773,Humphreys University-Stockton and Modesto Campuses,Stockton,CA,95207-3896,8,38.011051,-121.316401,-1,-1,24148,0.94769614,27.99377335,0.1853,0.8147,236
2011_115861,2011,115861,Imperial Valley College,Imperial,CA,92251-0158,8,32.827563,-115.503903,-1,-1,8147,PrivacySuppressed,23.24823944,0.4517,0.5483,-1
2011_115931,2011,115931,Institute for Business and Technology,Santa Clara,CA,95051-1303,8,37.368642,-121.969541,-1,-1,-1,0.888146912,29.88369505,0.6355,0.3645,-1
2011_116040,2011,116040,LA College International,Los Angeles,CA,900101308,8,-1,-1,-1,-1,-1,0.748768473,33.53366174,0.0938,0.9062,-1
2011_116226,2011,116226,Interior Designers Institute,Newport Beach,CA,92660,8,33.641393,-117.865722,-1,-1,-1,PrivacySuppressed,32.14583333,0.0856,0.9144,3
2011_116350,2011,116350,Toni & Guy Hairdressing Academy-Santa Monica,Santa Monica,CA,90401,8,34.017466,-118.494898,-1,-1,-1,0.942660551,25.24311927,0.1271,0.8729,-1
2011_116439,2011,116439,Irvine Valley College,Irvine,CA,92618-0301,8,33.675079,-117.778575,-1,-1,15191,0.137205809,24.77466199,0.4875,0.5125,-1
2011_116466,2011,116466,ITT Technical Institute-National City,National City,CA,91950,8,32.66182,-117.106121,0.8151,-1,25701,0.840442539,29.29226826,0.843,0.157,-1
2011_116475,2011,116475,ITT Technical Institute-San Dimas,San Dimas,CA,91773,8,34.102405,-117.818401,0.7907,-1,25355,0.840442539,29.29226826,0.8215,0.1785,-1
2011_116484,2011,116484,ITT Technical Institute-Orange,Orange,CA,92868,8,33.77999,-117.896171,0.8087,-1,25376,0.840442539,29.29226826,0.7854,0.2146,-1
2011_116563,2011,116563,Bellus Academy-El Cajon,El Cajon,CA,92021,8,32.794827,-116.945728,-1,-1,-1,0.890410959,25.46575343,0.0165,0.9835,-1
2011_116712,2011,116712,John F. Kennedy University,Pleasant Hill,CA,94523-4817,8,37.881794,-122.183972,-1,-1,-1,PrivacySuppressed,33.87962963,0.1824,0.8176,1126
2011_116846,2011,116846,American Jewish University,Los Angeles,CA,90077-1519,8,34.128099,-118.471764,0.9487,1030,35926,0.810344828,21.67241379,0.5188,0.4812,128
2011_117052,2011,117052,Reedley College,Reedley,CA,93654,8,36.605968,-119.45993,-1,-1,9284,0.085648148,22.89583333,0.4268,0.5732,-1
2011_117104,2011,117104,Life Pacific College,San Dimas,CA,91773-3298,8,34.089421,-117.830997,0.9559,923,23594,0.939716312,22.61702128,0.5043,0.4957,39
2011_117113,2011,117113,Argosy University-The Art Institute of California-San Diego,San Diego,CA,92108-4423,8,32.778278,-117.155395,0.4386,-1,30432,0.837273263,31.77722481,0.534,0.466,-1
2011_117140,2011,117140,University of La Verne,La Verne,CA,91750-4401,8,34.10086,-117.772634,0.5926,988,40660,0.918280872,27.30750605,0.4038,0.5962,3665
2011_117168,2011,117168,Laguna College of Art and Design,Laguna Beach,CA,92651,8,33.561448,-117.772564,0.3947,-1,34839,0.937777778,22.41333333,0.3825,0.6175,34
2011_117195,2011,117195,Lake Tahoe Community College,South Lake Tahoe,CA,96150,8,38.926864,-119.971631,-1,-1,10010,PrivacySuppressed,26.93756968,0.4324,0.5676,-1
2011_117238,2011,117238,Lancaster Beauty School,Lancaster,CA,93534,8,34.695646,-118.148664,-1,-1,-1,0.886904762,24.70833333,0.1345,0.8655,-1
2011_117247,2011,117247,Laney College,Oakland,CA,94607,8,37.796205,-122.262434,-1,-1,12165,0.083444149,29.6200133,0.4478,0.5522,-1
2011_117274,2011,117274,Lassen Community College,Susanville,CA,96130,8,40.431327,-120.631169,-1,-1,14187,0.288135593,25.98305085,0.7364,0.2636,-1
2011_117520,2011,117520,Life Chiropractic College West,Hayward,CA,94545-2800,8,37.637639,-122.11627,-1,-1,-1,-1,-1,-1,-1,320
2011_117557,2011,117557,Lincoln University,Oakland,CA,94612-2801,8,37.804788,-122.269745,-1,-1,19830,PrivacySuppressed,30.44615385,0.4167,0.5833,279
2011_117575,2011,117575,Southern California Seminary,El Cajon,CA,92019-1108,8,32.803259,-116.900531,-1,-1,29902,PrivacySuppressed,37.825,0.8061,0.1939,148
2011_117627,2011,117627,La Sierra University,Riverside,CA,92515-8247,8,33.908834,-117.497071,0.4654,914,37224,0.952922078,21.06006494,0.4465,0.5535,302
2011_117636,2011,117636,Loma Linda University,Loma Linda,CA,92350,8,34.050975,-117.261086,-1,-1,-1,0.985882353,26.54,0.2612,0.7388,3285
2011_117645,2011,117645,Long Beach City College,Long Beach,CA,90808-1706,8,33.831741,-118.135819,-1,-1,9523,0.137957447,24.9426383,0.4886,0.5114,-1
2011_117672,2011,117672,Southern California University of Health Sciences,Whittier,CA,90604,8,33.924638,-117.985447,-1,-1,-1,PrivacySuppressed,30.9,0.1429,0.8571,625
2011_117690,2011,117690,Los Angeles Harbor College,Wilmington,CA,90744-2397,8,33.784201,-118.28186,-1,-1,14154,0.052335534,25.07385669,0.4145,0.5855,-1
2011_117706,2011,117706,Los Angeles Pierce College,Woodland Hills,CA,91371-0002,8,34.184184,-118.577194,-1,-1,12578,0.178200254,24.72623574,0.4538,0.5462,-1
2011_117715,2011,117715,Los Angeles Southwest College,Los Angeles,CA,90047-4899,8,33.929586,-118.304674,-1,-1,10396,0.084271284,28.35757576,0.2839,0.7161,-1
2011_117724,2011,117724,Los Angeles Trade Technical College,Los Angeles,CA,90015-4181,8,34.032623,-118.269113,-1,-1,10977,0.134897856,28.61759244,0.5141,0.4859,-1
2011_117733,2011,117733,Los Angeles Valley College,Valley Glen,CA,91401-4096,8,34.176406,-118.421446,-1,-1,12392,0.167254266,26.8041179,0.4212,0.5788,-1
2011_117751,2011,117751,The Master's University and Seminary,Santa Clarita,CA,91321-1200,8,34.38214,-118.517422,0.6946,1117,37830,0.900445765,22.98068351,0.537,0.463,419
2011_117788,2011,117788,Los Angeles City College,Los Angeles,CA,90029,8,34.087301,-118.292169,-1,-1,10244,0.188780701,28.8725476,0.4371,0.5629,-1
2011_117803,2011,117803,Los Angeles County College of Nursing and Allied Health,Los Angeles,CA,90033-1084,8,34.061605,-118.211418,-1,-1,-1,0.795918367,32.44217687,0.2251,0.7749,-1
2011_117867,2011,117867,Los Angeles Mission College,Sylmar,CA,91342-3200,8,34.314944,-118.419087,-1,-1,13025,0.122922712,26.26167238,0.3792,0.6208,-1
2011_117894,2011,117894,Los Medanos College,Pittsburg,CA,94565,8,38.005552,-121.861122,-1,-1,14068,0.027877698,25.70743405,0.4405,0.5595,-1
2011_117928,2011,117928,Argosy University-The Art Institute of California-San Francisco,San Francisco,CA,94102-4908,8,37.803958,-122.417185,0.4169,-1,33172,0.837273263,31.77722481,0.5299,0.4701,10
2011_117946,2011,117946,Loyola Marymount University,Los Angeles,CA,90045-2659,8,33.970633,-118.415655,0.5344,1188,52047,0.936207655,20.29476463,0.4285,0.5715,3283
2011_117955,2011,117955,Lu Ross Academy,Ventura,CA,93001-2729,8,34.278034,-119.293952,-1,-1,-1,0.941935484,25.72258065,0.0088,0.9912,-1
2011_118116,2011,118116,Manchester Beauty College,Fresno,CA,93726,8,-1,-1,-1,-1,-1,PrivacySuppressed,26.13475177,0.0417,0.9583,-1
2011_118125,2011,118125,Tulare Beauty College,Tulare,CA,93274,8,-1,-1,-1,-1,-1,PrivacySuppressed,25.80555556,0.0536,0.9464,-1
2011_118143,2011,118143,Lyles Fresno College of Beauty,Fresno,CA,93710,8,36.836251,-119.773747,-1,-1,-1,0.116182573,25.57261411,0.1325,0.8675,-1
2011_118161,2011,118161,Lytles Redwood Empire Beauty College Inc,Santa Rosa,CA,95403,8,38.508581,-122.758546,0.575,-1,-1,0.909638554,25.39759036,0.0333,0.9667,-1
2011_118189,2011,118189,MTI Business College Inc,Stockton,CA,95207-4349,8,38.007318,-121.308527,-1,-1,-1,0.91627907,30.14418605,0.0986,0.9014,-1
2011_118198,2011,118198,MTI College,Sacramento,CA,95841-9817,8,38.661377,-121.342568,-1,-1,-1,0.863764045,28.16643258,0.274,0.726,-1
2011_118259,2011,118259,Brightwood College-Sacramento,Sacramento,CA,95821,8,38.644462,-121.380453,-1,-1,-1,0.960745829,24.67909715,0.1667,0.8333,-1
2011_118277,2011,118277,Brightwood College-San Diego,San Diego,CA,92123,8,32.821707,-117.133017,-1,-1,-1,0.893269231,26.90576923,0.2381,0.7619,-1
2011_118286,2011,118286,Brightwood College-Vista,Vista,CA,92083-7736,8,33.17244,-117.220816,-1,-1,-1,0.92677643,25.51906413,0.2495,0.7505,-1
2011_118347,2011,118347,College of Marin,Kentfield,CA,94904-2590,8,37.955014,-122.549936,-1,-1,14840,0.309581127,29.41839191,0.4071,0.5929,-1
2011_118356,2011,118356,Marinello Schools of Beauty-Los Angeles,Los Angeles,CA,90023,8,-1,-1,-1,-1,-1,0.922186752,24.58739026,0.0604,0.9396,-1
2011_118541,2011,118541,Marymount California University,Rancho Palos Verdes,CA,90275-6299,8,33.73463,-118.333404,0.4467,-1,38024,0.941732284,19.86456693,0.4864,0.5136,-1
2011_118684,2011,118684,Mendocino College,Ukiah,CA,95482,8,39.19119,-123.22903,-1,-1,13480,0.144391408,27.29534606,0.3781,0.6219,-1
2011_118693,2011,118693,Menlo College,Atherton,CA,94027-4301,8,37.452906,-122.181444,0.379,978,49770,0.949602122,21.04244032,0.632,0.368,-1
2011_118718,2011,118718,Merced College,Merced,CA,95348-2898,8,37.335348,-120.476726,-1,-1,8509,PrivacySuppressed,23.76193601,0.4332,0.5668,-1
2011_118772,2011,118772,Merritt College,Oakland,CA,94619-3196,8,37.789088,-122.167335,-1,-1,14966,0.147348663,29.42796809,0.3239,0.6761,-1
2011_118888,2011,118888,Mills College,Oakland,CA,94613,8,37.782639,-122.18789,0.5704,1177,51877,0.95483871,23.31290323,0,1,612
2011_118912,2011,118912,MiraCosta College,Oceanside,CA,92056-3899,8,33.191231,-117.302283,-1,-1,7984,0.129815745,24.66080402,0.4352,0.5648,-1
2011_118921,2011,118921,Marinello Schools of Beauty-San Francisco,San Francisco,CA,94103,8,-1,-1,-1,-1,-1,0.903578529,26.09642147,0.115,0.885,-1
2011_118930,2011,118930,Mission College,Santa Clara,CA,95054-1897,8,37.391323,-121.982174,-1,-1,13324,0.051948052,28.01565102,0.4379,0.5621,-1
2011_118958,2011,118958,Modern Beauty Academy,Oxnard,CA,93030,8,34.195384,-119.181423,-1,-1,-1,0.837209302,21.74418605,0.2333,0.7667,-1
2011_118967,2011,118967,Brightwood College-North Hollywood,North Hollywood,CA,91606-3231,8,34.182673,-118.396131,-1,-1,-1,0.926829268,26.02676978,0.4845,0.5155,-1
2011_118976,2011,118976,Modesto Junior College,Modesto,CA,95350-5800,8,37.652042,-121.009723,-1,-1,11822,PrivacySuppressed,25.58729079,0.4311,0.5689,-1
2011_118994,2011,118994,Moler Barber College,Oakland,CA,94609-2419,8,37.826826,-122.265094,-1,-1,-1,0.351351351,28.39189189,0.9394,0.0606,-1
2011_119058,2011,119058,Middlebury Institute of International Studies at Monterey,Monterey,CA,93940,8,36.599827,-121.896813,-1,-1,-1,0.964948454,19.74226804,0.6471,0.3529,758
2011_119067,2011,119067,Monterey Peninsula College,Monterey,CA,93940-4799,8,36.590826,-121.885774,-1,-1,12604,0.163340336,25.32668067,0.519,0.481,-1
2011_119137,2011,119137,Moorpark College,Moorpark,CA,93021-1695,8,34.300018,-118.836624,-1,-1,14116,0.170846858,24.06167011,0.4717,0.5283,-1
2011_119164,2011,119164,Mt San Antonio College,Walnut,CA,91789-1399,8,34.043786,-117.8437,-1,-1,9033,0.053492365,23.68898527,0.4919,0.5081,-1
2011_119173,2011,119173,Mount Saint Mary's University,Los Angeles,CA,90049-1599,8,34.082112,-118.480471,0.6807,938,43368,0.957222567,24.15127092,0.0662,0.9338,668
2011_119216,2011,119216,Mt San Jacinto Community College District,San Jacinto,CA,92583-2399,8,33.807364,-116.970063,-1,-1,11826,PrivacySuppressed,26.49423274,0.4206,0.5794,-1
2011_119234,2011,119234,Mueller College,San Diego,CA,92108-3002,8,32.76557,-117.163811,-1,-1,31853,0.946107784,34.6736527,0.362,0.638,-1
2011_119270,2011,119270,Musicians Institute,Hollywood,CA,90028,8,34.101527,-118.33783,0.987,1127,37224,0.953322785,23.23813291,0.8153,0.1847,-1
2011_119331,2011,119331,Napa Valley College,Napa,CA,94558-6236,8,38.27254,-122.272565,-1,-1,14913,0.089814815,25.11018519,0.4389,0.5611,-1
2011_119340,2011,119340,Everest College-San Francisco,San Francisco,CA,94103-9946,8,-1,-1,-1,-1,-1,0.805071315,27.14844163,0.1662,0.8338,-1
2011_119359,2011,119359,Everest College-Reseda,Reseda,CA,91335-4631,8,-1,-1,-1,-1,29833,0.877975193,27.96781763,0.2158,0.7842,-1
2011_119368,2011,119368,Everest College-LA Wilshire,Los Angeles,CA,90010,8,-1,-1,-1,-1,26753,0.888489209,25.55755396,0.1689,0.8311,-1
2011_119438,2011,119438,Everest College-San Jose,San Jose,CA,95128,8,-1,-1,-1,-1,-1,0.887824897,26.20930233,0.1229,0.8771,-1
2011_119456,2011,119456,Everest College-Gardena,Gardena,CA,90247,8,-1,-1,-1,-1,-1,0.858003442,27.60283993,0.1353,0.8647,-1
2011_119465,2011,119465,Everest College-Alhambra,Alhambra,CA,91803,8,-1,-1,-1,-1,-1,0.879419192,26.41193182,0.2643,0.7357,-1
2011_119508,2011,119508,Everest College-San Bernardino,San Bernardino,CA,92408,8,-1,-1,-1,-1,27592,0.86251809,25.95586107,0.306,0.694,-1
2011_119544,2011,119544,The National Hispanic University,San Jose,CA,95127-3823,8,-1,-1,0.9861,-1,15930,0.679824561,28.64035088,0.3085,0.6915,177
2011_119553,2011,119553,National Holistic Institute,Emeryville,CA,94608-2008,8,37.841898,-122.287672,-1,-1,-1,0.930268199,29.97011494,0.2492,0.7508,-1
2011_119605,2011,119605,National University,La Jolla,CA,92037-1011,8,32.909469,-117.244243,-1,-1,23851,0.883761428,31.27789871,0.391,0.609,8610
2011_119775,2011,119775,Newschool of Architecture and Design,San Diego,CA,92101,8,32.71331,-117.153305,0.9,-1,43504,0.945,23.655,0.755,0.245,213
2011_119845,2011,119845,Newberry School of Beauty,Granada Hills,CA,91344-7401,8,34.25748,-118.499469,-1,-1,-1,0.830434783,26.32608696,0.0345,0.9655,-1
2011_119951,2011,119951,North Adrian's College of Beauty Inc,Modesto,CA,95350-2381,8,37.677778,-120.992753,-1,-1,-1,0.940540541,24.15135135,0.0497,0.9503,-1
2011_120069,2011,120069,North-West College-Pomona,Pomona,CA,91768,8,34.06203,-117.751861,1,-1,-1,0.889437315,26.54590326,0.0951,0.9049,-1
2011_120078,2011,120078,North-West College-West Covina,West Covina,CA,91790,8,34.072071,-117.949583,1,-1,-1,0.895783612,26.31980907,0.2144,0.7856,-1
2011_120087,2011,120087,North-West College-Pasadena,Pasadena,CA,91101,8,34.146907,-118.139266,1,-1,-1,0.899182561,27.22888283,0.1493,0.8507,-1
2011_120184,2011,120184,Notre Dame de Namur University,Belmont,CA,94002-1908,8,37.517501,-122.284618,0.7099,956,45656,0.948417351,26.02344666,0.3421,0.6579,820
2011_120254,2011,120254,Occidental College,Los Angeles,CA,90041-3392,8,34.126224,-118.210783,0.3871,1300,55691,0.954074074,19.4637037,0.4324,0.5676,7
2011_120272,2011,120272,Oceanside College of Beauty,Oceanside,CA,92054-5356,8,33.178889,-117.365276,-1,-1,-1,PrivacySuppressed,23.67460318,0.0588,0.9412,-1
2011_120290,2011,120290,Ohlone College,Fremont,CA,94539-0390,8,37.527956,-121.914597,-1,-1,14015,0.122191011,24.94007491,0.487,0.513,-1
2011_120342,2011,120342,Orange Coast College,Costa Mesa,CA,92626,8,33.670171,-117.911401,-1,-1,11269,0.147027027,23.21297297,0.5152,0.4848,-1
2011_120403,2011,120403,Otis College of Art and Design,Los Angeles,CA,90045-3505,8,33.956607,-118.416615,0.511,1044,47067,0.939516129,21.64516129,0.3225,0.6775,68
2011_120421,2011,120421,Oxnard College,Oxnard,CA,93033-6699,8,34.164899,-119.15549,-1,-1,13822,PrivacySuppressed,25.26590331,0.4565,0.5435,-1
2011_120537,2011,120537,Hope International University,Fullerton,CA,92831-3199,8,33.87616,-117.88573,0.5217,950,35802,0.94962963,26.16296296,0.4311,0.5689,401
2011_120661,2011,120661,Concorde Career College-San Diego,San Diego,CA,92113-1964,8,32.70406,-117.10187,1,-1,-1,0.819188192,27.38597786,0.2681,0.7319,-1
2011_120698,2011,120698,Palo Alto University,Palo Alto,CA,94304-1337,8,37.383251,-122.186022,-1,-1,-1,0.874015748,27.18110236,0.3869,0.6131,630
2011_120740,2011,120740,Pacific Lutheran Theological Seminary,Berkeley,CA,94708-1597,8,37.898172,-122.260201,-1,-1,-1,PrivacySuppressed,PrivacySuppressed,-1,-1,126
2011_120768,2011,120768,Pacific Oaks College,Pasadena,CA,91103,8,34.153073,-118.151573,-1,-1,-1,0.967661692,36.66915423,0.0667,0.9333,428
2011_120795,2011,120795,Pacific School of Religion,Berkeley,CA,94709,8,37.876599,-122.263331,-1,-1,-1,-1,-1,-1,-1,186
2011_120838,2011,120838,Pacific States University,Los Angeles,CA,90010,8,34.0607,-118.299841,-1,-1,-1,PrivacySuppressed,PrivacySuppressed,0.7143,0.2857,178
2011_120865,2011,120865,Pacific Union College,Angwin,CA,94508-9707,8,38.57409,-122.449639,0.4683,1010,36748,0.972222222,21.58333333,0.4566,0.5434,1
2011_120883,2011,120883,University of the Pacific,Stockton,CA,95211-0197,8,37.980624,-121.307296,0.3584,1184,47871,0.942678478,20.96404377,0.4496,0.5504,2827
2011_120953,2011,120953,Palo Verde College,Blythe,CA,92225,8,33.661538,-114.651698,-1,-1,12403,PrivacySuppressed,26.11058824,0.7832,0.2168,-1
2011_120971,2011,120971,Palomar College,San Marcos,CA,92069-1487,8,33.15019,-117.181718,-1,-1,10942,0.110071942,25.1,0.5435,0.4565,-1
2011_121008,2011,121008,Marinello Schools of Beauty-Paramount,Paramount,CA,90723,8,-1,-1,-1,-1,-1,0.840659341,23.51373626,0.0868,0.9132,-1
2011_121017,2011,121017,Paris Beauty College,Concord,CA,94520,8,37.972204,-122.043458,-1,-1,-1,PrivacySuppressed,28.36065574,0.042,0.958,-1
2011_121044,2011,121044,Pasadena City College,Pasadena,CA,91106-2003,8,34.144552,-118.118196,-1,-1,10498,0.064041178,22.5610486,0.4808,0.5192,-1
2011_121071,2011,121071,Patten University,Oakland,CA,94601,8,-1,-1,-1,-1,28165,0.705202312,28.89595376,0.6379,0.3621,56
2011_121150,2011,121150,Pepperdine University,Malibu,CA,90263,8,34.041912,-118.707677,0.3156,1215,53084,0.961409396,21.65268456,0.4444,0.5556,4065
2011_121257,2011,121257,Pitzer College,Claremont,CA,91711-6101,8,34.103408,-117.705939,0.2413,1287,55080,0.932,21.288,0.3849,0.6151,-1
2011_121275,2011,121275,Platt College-San Diego,San Diego,CA,92115-3919,8,32.76373,-117.063483,-1,-1,41815,0.80730897,27.04983389,0.7823,0.2177,-1
2011_121309,2011,121309,Point Loma Nazarene University,San Diego,CA,92106-2899,8,32.713295,-117.251204,0.5241,1149,39828,0.9512,20.4032,0.3949,0.6051,875
2011_121345,2011,121345,Pomona College,Claremont,CA,91711-6319,8,34.098298,-117.711944,0.1403,1455,53490,0.667910448,19.44402985,0.4901,0.5099,-1
2011_121363,2011,121363,Porterville College,Porterville,CA,93257,8,36.049256,-119.014368,-1,-1,8947,PrivacySuppressed,24.19729376,0.3598,0.6402,-1
2011_121381,2011,121381,Westwood College-South Bay,Torrance,CA,90502,8,-1,-1,0.5309,-1,29329,0.865108869,26.74508763,0.4585,0.5415,-1
2011_121433,2011,121433,Professional Institute of Beauty,El Monte,CA,91731,8,34.075,-118.038,-1,-1,-1,0.643192488,31.6056338,0.0753,0.9247,-1
2011_121619,2011,121619,Santa Ana College,Santa Ana,CA,92706-3398,8,33.759203,-117.888384,-1,-1,8740,0.082804046,24.32180663,0.6419,0.3581,-1
2011_121628,2011,121628,Pardee RAND Graduate School,Santa Monica,CA,90407-2138,8,34.009975,-118.49047,-1,-1,-1,-1,-1,-1,-1,100
2011_121637,2011,121637,Shasta School of Cosmetology,Redding,CA,96003,8,40.59709,-122.387231,-1,-1,-1,PrivacySuppressed,24.71544715,0.0141,0.9859,-1
2011_121691,2011,121691,University of Redlands,Redlands,CA,92373-0999,8,34.063571,-117.163847,0.6655,1134,49598,0.95173454,25.17295123,0.4435,0.5565,1467
2011_121707,2011,121707,College of the Redwoods,Eureka,CA,95501-9300,8,40.696744,-124.195075,-1,-1,11188,0.21807152,26.31002554,0.4325,0.5675,-1
2011_121859,2011,121859,Salon Success Academy-Upland,Upland,CA,91786,8,34.108353,-117.631091,-1,-1,-1,0.838905775,24.54103344,0.0377,0.9623,-1
2011_121868,2011,121868,Salon Success Academy-Corona,Corona,CA,92879,8,33.84778,-117.535451,-1,-1,-1,0.855691057,24.6097561,0.0952,0.9048,-1
2011_121877,2011,121877,Marinello Schools of Beauty-Huntington Beach,Huntington Beach,CA,92646,8,-1,-1,-1,-1,-1,0.875647668,26.44041451,0.0057,0.9943,-1
2011_121886,2011,121886,Rio Hondo College,Whittier,CA,90601-1616,8,34.019878,-118.033329,-1,-1,10763,0.050757151,22.97994952,0.5436,0.4564,-1
2011_121901,2011,121901,Riverside City College,Riverside,CA,92506,8,33.971481,-117.38054,-1,-1,11593,0.068946548,24.37682222,0.4395,0.5605,-1
2011_121983,2011,121983,Argosy University-San Francisco Bay Area,Alameda,CA,94501,8,37.781238,-122.267523,-1,-1,26372,0.837273263,31.77722481,0.3226,0.6774,651
2011_121992,2011,121992,Rosemead Beauty School,Rosemead,CA,91770-1639,8,34.080756,-118.082793,-1,-1,-1,PrivacySuppressed,36.03724395,0.1912,0.8088,-1
2011_122117,2011,122117,Dongguk University-Los Angeles,Los Angeles,CA,90020-1704,8,34.066226,-118.289927,-1,-1,-1,PrivacySuppressed,42.15,0,1,212
2011_122180,2011,122180,Sacramento City College,Sacramento,CA,95822-1386,8,38.541883,-121.49166,-1,-1,10927,0.207659951,25.9404472,0.434,0.566,-1
2011_122205,2011,122205,Saddleback College,Mission Viejo,CA,92692-3635,8,33.551925,-117.664876,-1,-1,16645,0.184924078,25.85656182,0.4558,0.5442,-1
2011_122296,2011,122296,Samuel Merritt University,Oakland,CA,94609,8,37.82029,-122.266331,-1,-1,-1,0.985163205,28.9495549,0.1583,0.8417,880
2011_122339,2011,122339,San Diego City College,San Diego,CA,92101-4787,8,32.718855,-117.151641,-1,-1,11419,0.16074817,25.99227433,0.4789,0.5211,-1
2011_122366,2011,122366,Golf Academy of America-San Diego,Carlsbad,CA,92008,8,33.12291,-117.283394,-1,-1,28442,0.940017481,29.76258285,0.9758,0.0242,-1
2011_122375,2011,122375,San Diego Mesa College,San Diego,CA,92111-4998,8,32.804935,-117.169072,-1,-1,11021,0.181385006,24.34355146,0.4818,0.5182,-1
2011_122384,2011,122384,San Diego Miramar College,San Diego,CA,92126-2999,8,32.909546,-117.120888,-1,-1,11161,0.160308015,26.18480924,0.5626,0.4374,-1
2011_122409,2011,122409,San Diego State University,San Diego,CA,92182,8,32.77525,-117.071228,0.2999,1087,18157,0.744417825,22.62376617,0.4389,0.5611,4745
2011_122436,2011,122436,University of San Diego,San Diego,CA,92110-2492,8,32.77142,-117.188721,0.4752,1241,52952,0.946165566,21.14169629,0.447,0.553,2824
2011_122454,2011,122454,San Francisco Art Institute,San Francisco,CA,94133-2299,8,37.803575,-122.417,0.5711,1031,50925,0.927272727,22.89454546,0.4408,0.5592,261
2011_122506,2011,122506,San Francisco Conservatory of Music,San Francisco,CA,94102-6011,8,37.775322,-122.420143,0.4081,-1,48950,PrivacySuppressed,20.83333333,0.5297,0.4703,194
2011_122597,2011,122597,San Francisco State University,San Francisco,CA,94132,8,37.721345,-122.477905,0.6147,1010,20374,0.746534997,23.18399168,0.4271,0.5729,4158
2011_122603,2011,122603,San Francisco Theological Seminary,San Anselmo,CA,94960-0000,8,37.969594,-122.564302,-1,-1,-1,-1,-1,-1,-1,292
2011_122612,2011,122612,University of San Francisco,San Francisco,CA,94117-1080,8,37.775564,-122.450977,0.5797,1142,52583,0.950105708,21.96575053,0.3677,0.6323,3728
2011_122649,2011,122649,San Joaquin College of Law,Clovis,CA,93612-1312,8,36.823978,-119.6978,-1,-1,-1,PrivacySuppressed,PrivacySuppressed,-1,-1,211
2011_122658,2011,122658,San Joaquin Delta College,Stockton,CA,95207,8,37.994643,-121.317226,-1,-1,13644,0.174414234,25.39844631,0.4263,0.5737,-1
2011_122685,2011,122685,San Joaquin Valley College-Visalia,Visalia,CA,93291-9283,8,36.328049,-119.384981,-1,-1,21387,0.885966578,26.17033802,0.2811,0.7189,-1
2011_122694,2011,122694,San Joaquin Valley College-Bakersfield,Bakersfield,CA,93309,8,-1,-1,-1,-1,20239,0.885966578,26.17033802,0.2858,0.7142,-1
2011_122728,2011,122728,William Jessup University,Rocklin,CA,95765-3707,8,38.819494,-121.292968,0.6452,1015,31436,0.913746631,25.52830189,0.4098,0.5902,27
2011_122746,2011,122746,San Jose City College,San Jose,CA,95128-2798,8,37.316293,-121.929747,-1,-1,14587,0.121103896,27.70941558,0.4405,0.5595,-1
2011_122755,2011,122755,San Jose State University,San Jose,CA,95192-0001,8,37.335201,-121.881214,0.5657,1030,21586,0.730498655,22.69770329,0.4946,0.5054,5432
2011_122791,2011,122791,College of San Mateo,San Mateo,CA,94402-3784,8,37.534357,-122.336078,-1,-1,10366,0.064994882,24.88945752,0.5,0.5,-1
2011_122834,2011,122834,Santa Barbara Business College-Bakersfield,Bakersfield,CA,93309,8,35.359544,-119.061264,-1,-1,22572,0.934937611,25.38680927,0.2827,0.7173,-1
2011_122843,2011,122843,Westwood College-Los Angeles,Los Angeles,CA,90010,8,-1,-1,0.4742,-1,29095,0.805414552,29.13213352,0.5163,0.4837,85
2011_122852,2011,122852,Santa Barbara Business College-Santa Maria,Santa Maria,CA,93454,8,34.403862,-119.699744,-1,-1,19228,0.941624366,24.94923858,0.1765,0.8235,-1
2011_122889,2011,122889,Santa Barbara City College,Santa Barbara,CA,93109-2394,8,34.406788,-119.698045,-1,-1,14671,0.451906851,25.35032062,0.46,0.54,-1
2011_122931,2011,122931,Santa Clara University,Santa Clara,CA,95053,8,37.352706,-121.938189,0.5795,1256,53122,0.949600492,20.70006146,0.4886,0.5114,3571
2011_122977,2011,122977,Santa Monica College,Santa Monica,CA,90405-1628,8,34.018968,-118.470431,-1,-1,7386,0.076300708,22.502416,0.4573,0.5427,-1
2011_123013,2011,123013,Santa Rosa Junior College,Santa Rosa,CA,95401-4395,8,38.45416,-122.720689,-1,-1,12495,0.140039841,26.04541833,0.4586,0.5414,-1
2011_123095,2011,123095,Saybrook University,Oakland,CA,94612-1943,8,37.80446,-122.272391,-1,-1,-1,PrivacySuppressed,PrivacySuppressed,-1,-1,604
2011_123165,2011,123165,Scripps College,Claremont,CA,91711-3905,8,34.103655,-117.711336,0.3629,1363,54700,0.926530612,19.79591837,0,1,18
2011_123208,2011,123208,Wyotech-Fremont,Fremont,CA,94539,8,-1,-1,-1,-1,-1,0.870954182,27.16225305,0.9536,0.0464,-1
2011_123217,2011,123217,College of the Sequoias,Visalia,CA,93277-2214,8,36.322957,-119.314775,-1,-1,7821,0.038219722,23.86896095,0.4368,0.5632,-1
2011_123280,2011,123280,Shasta Bible College and Graduate School,Redding,CA,96002,8,40.564208,-122.315742,1,-1,23595,0.379310345,23.62068966,0.68,0.32,11
2011_123299,2011,123299,Shasta College,Redding,CA,96003,8,40.625731,-122.317982,-1,-1,12215,0.177507448,25.94637537,0.4122,0.5878,-1
2011_123341,2011,123341,Sierra College,Rocklin,CA,95677-3397,8,38.792758,-121.212646,-1,-1,13232,0.248740907,26.82008954,0.4669,0.5331,-1
2011_123350,2011,123350,Sierra College of Beauty,Merced,CA,95340,8,37.306585,-120.495668,-1,-1,-1,PrivacySuppressed,24.1928934,0.0671,0.9329,-1
2011_123396,2011,123396,Sierra Valley College of Court Reporting,Fresno,CA,93726,8,36.802756,-119.773017,-1,-1,22452,0.88034188,26.97435897,0.0592,0.9408,-1
2011_123448,2011,123448,Trinity Law School,Santa Ana,CA,92705,8,33.766071,-117.852059,-1,-1,-1,0.945754717,28.06014151,-1,-1,232
2011_123457,2011,123457,Simpson University,Redding,CA,96003-8606,8,40.61331,-122.333048,0.5196,1051,32045,0.902161547,26.26848692,0.3271,0.6729,278
2011_123484,2011,123484,College of the Siskiyous,Weed,CA,96094-2899,8,41.413848,-122.389166,-1,-1,14092,0.485148515,26.07539985,0.4607,0.5393,-1
2011_123493,2011,123493,Charles A Jones Career and Education Center,Sacramento,CA,95824-1529,8,38.51651,-121.44111,-1,-1,-1,0.193627451,29.85784314,0.6761,0.3239,-1
2011_123509,2011,123509,Skyline College,San Bruno,CA,94066-1698,8,37.630543,-122.465978,-1,-1,9003,0.059428571,25.79504762,0.4692,0.5308,-1
2011_123527,2011,123527,San Bernardino Valley College,San Bernardino,CA,92410-2798,8,34.088717,-117.313814,-1,-1,11596,0.004322527,25.67896924,0.432,0.568,-1
2011_123554,2011,123554,Saint Mary's College of California,Moraga,CA,94575,8,37.83997,-122.106795,0.6915,1112,52357,0.955194805,21.04415584,0.3818,0.6182,1103
2011_123563,2011,123563,Solano Community College,Fairfield,CA,94534-3197,8,38.235513,-122.120232,-1,-1,12228,0.146549354,26.577124,0.4004,0.5996,-1
2011_123572,2011,123572,Sonoma State University,Rohnert Park,CA,94928-3609,8,38.341023,-122.673261,0.8088,1023,21245,0.822769601,22.55031541,0.3968,0.6032,876
2011_123581,2011,123581,Pinnacle College,Alhambra,CA,91803,8,-1,-1,-1,-1,-1,0.934460888,24.86892178,0.9683,0.0317,-1
2011_123633,2011,123633,South Baylo University,Anaheim,CA,92801-1701,8,33.847936,-117.958663,-1,-1,-1,PrivacySuppressed,37.93103448,0.3838,0.6162,438
2011_123642,2011,123642,South Coast College,Orange,CA,92868-2609,8,33.787946,-117.874109,-1,-1,-1,0.972067039,30.58379888,0.0867,0.9133,-1
2011_123651,2011,123651,Vanguard University of Southern California,Costa Mesa,CA,92626,8,33.662686,-117.900911,0.7371,984,39081,0.93348281,23.75261585,0.3627,0.6373,243
2011_123679,2011,123679,Concorde Career College-Garden Grove,Garden Grove,CA,92840-9201,8,33.774741,-117.938395,1,-1,-1,0.916842847,26.34390416,0.3097,0.6903,-1
2011_123800,2011,123800,Southwestern College,Chula Vista,CA,91910-7299,8,32.641567,-116.997215,-1,-1,9807,0.091900312,24.14935964,0.4675,0.5325,-1
2011_123916,2011,123916,Starr King School for the Ministry,Berkeley,CA,94709-1209,8,37.876939,-122.261778,-1,-1,-1,-1,-1,-1,-1,75
2011_123943,2011,123943,Marshall B Ketchum University,Fullerton,CA,92831-1699,8,33.889819,-117.886158,-1,-1,-1,PrivacySuppressed,PrivacySuppressed,0,0,398
2011_123952,2011,123952,Southern California Institute of Architecture,Los Angeles,CA,90013-1822,8,34.04365,-118.232703,0.8939,1080,43019,0.87654321,24.20987654,0.642,0.358,214
2011_123961,2011,123961,University of Southern California,Los Angeles,CA,90089,8,34.021058,-118.283858,0.2302,1383,55493,0.925534,20.53850676,0.4933,0.5067,20596
2011_123970,2011,123970,Southwestern Law School,Los Angeles,CA,90010-1106,8,34.061558,-118.288375,-1,-1,-1,PrivacySuppressed,PrivacySuppressed,-1,-1,1190
2011_124113,2011,124113,Taft College,Taft,CA,93268,8,35.149343,-119.459751,-1,-1,11959,PrivacySuppressed,23.55215686,0.6197,0.3803,-1
2011_124283,2011,124283,Claremont School of Theology,Claremont,CA,91711-3199,8,34.107602,-117.715256,-1,-1,-1,PrivacySuppressed,PrivacySuppressed,-1,-1,372
2011_124292,2011,124292,Thomas Aquinas College,Santa Paula,CA,93060,8,34.429009,-119.087141,0.7895,1256,33246,PrivacySuppressed,19.65625,0.4916,0.5084,-1
2011_124344,2011,124344,Marinello Schools of Beauty-Lake Forest,Lake Forest,CA,92630,8,-1,-1,-1,-1,-1,0.949447077,24.73301738,0.0538,0.9462,-1
2011_124487,2011,124487,Epic Bible College,Sacramento,CA,95841,8,38.64499,-121.362221,0.7857,-1,24797,0.788793103,34.88793103,0.5244,0.4756,-1
2011_124681,2011,124681,United Education Institute-Huntington Park Campus,Huntington Park,CA,90255,8,33.986057,-118.226206,0.6387,-1,-1,0.852372215,25.076173,0.3127,0.6873,-1
2011_124706,2011,124706,Concorde Career College-San Bernardino,San Bernardino,CA,92408-3403,8,34.06722,-117.28398,1,-1,-1,0.912896691,25.80688724,0.2075,0.7925,-1
2011_124779,2011,124779,Universal College of Beauty Inc-Los Angeles 1,Los Angeles,CA,90008,8,33.959435,-118.292148,-1,-1,-1,PrivacySuppressed,24.91240876,0.0256,0.9744,-1
2011_124937,2011,124937,Concorde Career College-North Hollywood,North Hollywood,CA,91606-3134,8,34.186464,-118.403755,1,-1,-1,0.9,26.4761062,0.3586,0.6414,-1
2011_125028,2011,125028,Ventura College,Ventura,CA,93003-3872,8,34.277035,-119.230659,-1,-1,13878,0.16743215,24.71524008,0.4492,0.5508,-1
2011_125082,2011,125082,Victor Valley Beauty College Inc,Victorville,CA,92395,8,34.528578,-117.303918,-1,-1,-1,0.910526316,24.32105263,0.0197,0.9803,-1
2011_125091,2011,125091,Victor Valley College,Victorville,CA,92395-5850,8,34.472231,-117.261456,-1,-1,11931,0.195415473,26.63037249,0.4257,0.5743,-1
2011_125170,2011,125170,Berkeley City College,Berkeley,CA,94704,8,37.87047,-122.269793,-1,-1,12557,0.124726477,25.96827134,0.4274,0.5726,-1
2011_125231,2011,125231,Walden University,Minneapolis,MN,55401,4,44.98137,-93.265741,-1,-1,27807,0.971308607,36.18074578,0.2455,0.7545,40241
2011_125462,2011,125462,West Hills College-Coalinga,Coalinga,CA,93210,8,36.147891,-120.356747,-1,-1,9104,0.215325671,23.69348659,0.42,0.58,-1
2011_125471,2011,125471,West Los Angeles College,Culver City,CA,90230-3519,8,34.005578,-118.387578,-1,-1,11774,0.15044892,27.10167435,0.3738,0.6262,-1
2011_125499,2011,125499,West Valley College,Saratoga,CA,95070-5698,8,37.263133,-122.009701,-1,-1,14164,0.087837838,26.52364865,0.4512,0.5488,-1
2011_125532,2011,125532,Carrington College-Sacramento,Sacramento,CA,95826,8,38.561777,-121.36892,1,-1,-1,0.919499592,26.48273049,0.1481,0.8519,-1
2011_125718,2011,125718,Westminster Theological Seminary in California,Escondido,CA,92027,8,33.121447,-117.046371,-1,-1,-1,-1,-1,-1,-1,146
2011_125727,2011,125727,Westmont College,Santa Barbara,CA,93108-1089,8,34.449265,-119.661932,0.613,1188,49990,0.965034965,19.62237762,0.383,0.617,4
2011_125763,2011,125763,Whittier College,Whittier,CA,90601,8,33.977625,-118.028402,0.7148,1067,48759,0.971830986,20.02816901,0.4672,0.5328,844
2011_125897,2011,125897,Woodbury University,Burbank,CA,91510-7846,8,34.209226,-118.340692,0.7352,955,40545,0.950877193,23.13859649,0.4734,0.5266,282
2011_126012,2011,126012,The Wright Institute,Berkeley,CA,94704-1796,8,37.868221,-122.253168,-1,-1,-1,PrivacySuppressed,PrivacySuppressed,-1,-1,426
2011_126030,2011,126030,Western State College of Law at Argosy University,Fullerton,CA,92831-3014,8,33.880672,-117.890274,-1,-1,-1,0.837273263,31.77722481,-1,-1,511
2011_126049,2011,126049,Thomas Jefferson School of Law,San Diego,CA,92101,8,32.71014,-117.154191,-1,-1,-1,PrivacySuppressed,39.53333333,-1,-1,1254
2011_126076,2011,126076,Yeshiva Ohr Elchonon Chabad West Coast Talmudical Seminary,Los Angeles,CA,90046,8,34.085494,-118.346688,1,-1,22100,PrivacySuppressed,18.97752809,1,0,-1
2011_126119,2011,126119,Yuba College,Marysville,CA,95901,8,39.125995,-121.539316,-1,-1,10879,0.069888476,26.06914498,0.4008,0.5992,-1
2011_126164,2011,126164,The Salon Professional Academy-Grand Junction,Grand Junction,CO,81501,7,39.07799,-108.564961,-1,-1,-1,0.907563025,23.14285714,0.0111,0.9889,-1
2011_126182,2011,126182,Adams State University,Alamosa,CO,81101,7,37.477238,-105.880943,0.6365,939,16505,0.85755814,23.88953488,0.449,0.551,810
2011_126207,2011,126207,Aims Community College,Greeley,CO,80634,7,40.409037,-104.764335,-1,-1,13315,0.677172583,26.85556916,0.4469,0.5531,-1
2011_126289,2011,126289,Arapahoe Community College,Littleton,CO,80160-9002,7,39.607505,-105.018631,-1,-1,13366,0.780911063,28.98331387,0.3957,0.6043,-1
2011_126359,2011,126359,Bel-Rea Institute of Animal Technology,Denver,CO,80247,7,39.686066,-104.875292,0.8953,-1,22697,0.942068966,25.48827586,0.1368,0.8632,-1
2011_126401,2011,126401,Everest College-Colorado Springs,Colorado Springs,CO,80916,7,38.807095,-104.740267,-1,-1,26108,0.86790831,26.71289398,0.2751,0.7249,-1
2011_126410,2011,126410,Boulder College of Massage Therapy,Boulder,CO,803013295,7,-1,-1,-1,-1,24097,PrivacySuppressed,29.31460674,0.287,0.713,-1
2011_126562,2011,126562,University of Colorado Denver/Anschutz Medical Campus,Denver,CO,80217-3364,7,39.74603,-104.999181,0.5976,1057,20984,0.874313606,24.93044539,0.4662,0.5338,9821
2011_126580,2011,126580,University of Colorado Colorado Springs,Colorado Springs,CO,80918,7,38.892735,-104.800296,0.671,1072,17773,0.875368008,23.53606477,0.4687,0.5313,2171
2011_126605,2011,126605,Redstone College,Broomfield,CO,80021-3465,7,39.914822,-105.119096,-1,-1,23535,0.868907563,28.49327731,0.9591,0.0409,-1
2011_126614,2011,126614,University of Colorado Boulder,Boulder,CO,80309-0017,7,40.004415,-105.267061,0.8694,1179,25747,0.912557262,20.75060631,0.5344,0.4656,6028
2011_126669,2011,126669,Colorado Christian University,Lakewood,CO,80226,7,39.711701,-105.094836,0.8131,-1,34590,0.932012432,31.56993007,0.3485,0.6515,368
2011_126678,2011,126678,Colorado College,Colorado Springs,CO,80903,7,38.84657,-104.82422,0.2576,1349,50847,0.93164557,19.46835443,0.4631,0.5369,17
2011_126687,2011,126687,Concorde Career College-Aurora,Aurora,CO,80010-4314,7,39.718699,-104.867089,1,-1,-1,0.874592834,28.73289902,0.2289,0.7711,-1
2011_126702,2011,126702,The Art Institute of Colorado,Denver,CO,80203-2983,7,39.735587,-104.985847,0.5126,-1,35310,0.934326968,26.24918491,0.4766,0.5234,-1
2011_126711,2011,126711,Colorado Mountain College,Glenwood Springs,CO,81601-0233,7,39.54634,-107.324401,-1,-1,8308,0.758566978,26.27258567,0.4521,0.5479,-1
2011_126748,2011,126748,Colorado Northwestern Community College,Rangely,CO,81648-3598,7,40.080745,-108.790296,-1,-1,15189,0.742342342,25.73873874,0.3446,0.6554,-1
2011_126775,2011,126775,Colorado School of Mines,Golden,CO,80401,7,39.75079,-105.227148,0.4455,1297,25121,0.942307692,20.52514793,0.7397,0.2603,1577
2011_126784,2011,126784,Colorado School of Trades,Lakewood,CO,80215-2996,7,39.741009,-105.103945,-1,-1,-1,0.851351351,30.15765766,0.9691,0.0309,-1
2011_126818,2011,126818,Colorado State University-Fort Collins,Fort Collins,CO,80523-0100,7,40.574759,-105.08083,0.7587,1129,18682,0.908645073,21.37568431,0.4851,0.5149,7392
2011_126827,2011,126827,Colorado Technical University-Colorado Springs,Colorado Springs,CO,80907-3812,7,38.894265,-104.833928,-1,-1,22413,0.895250343,34.96206424,0.5964,0.4036,968
2011_126854,2011,126854,Empire Beauty School-Lakewood,Lakewood,CO,80226,7,39.722781,-105.082104,-1,-1,-1,0.918518519,27.15555556,0.1493,0.8507,-1
2011_126863,2011,126863,Community College of Aurora,Aurora,CO,80011-9036,7,39.717767,-104.801861,-1,-1,23256,0.599850551,29.23594246,0.4018,0.5982,-1
2011_126872,2011,126872,CollegeAmerica-Denver,Denver,CO,80222,7,39.691571,-104.94118,-1,-1,21120,0.892482916,29.36400911,0.2459,0.7541,-1
2011_126915,2011,126915,Delta Montrose Technical College,Delta,CO,81416,7,38.702524,-108.031072,-1,-1,-1,0.634042553,28.18297872,0.187,0.813,-1
2011_126924,2011,126924,Prince Institute-Rocky Mountains,Westminster,CO,80031-2901,7,-1,-1,-1,-1,26472,PrivacySuppressed,34.67123288,0.0559,0.9441,-1
2011_126942,2011,126942,Community College of Denver,Denver,CO,80204-2026,7,39.74142,-105.003007,-1,-1,14241,0.73266745,28.41696044,0.4075,0.5925,-1
2011_126951,2011,126951,Lincoln College of Technology-Denver,Denver,CO,80239,7,39.77651,-104.856171,-1,-1,-1,0.924914676,24.81058021,0.9531,0.0469,-1
2011_126979,2011,126979,Denver Seminary,Littleton,CO,80120,7,39.600595,-105.022363,-1,-1,-1,PrivacySuppressed,PrivacySuppressed,-1,-1,1018
2011_127024,2011,127024,Westwood College-Denver North,Denver,CO,80221,7,-1,-1,0.5591,-1,22450,0.868825007,25.16048005,0.6436,0.3564,-1
2011_127060,2011,127060,University of Denver,Denver,CO,80208,7,39.695954,-104.964625,0.6816,1236,49811,0.921960073,22.33333333,0.4388,0.5612,6344
2011_127158,2011,127158,Emily Griffith Technical College,Denver,CO,80203,7,39.74574,-104.985711,-1,-1,-1,PrivacySuppressed,30.85980149,0.7097,0.2903,-1
2011_127185,2011,127185,Fort Lewis College,Durango,CO,81301-3999,7,37.275428,-107.867003,0.709,1045,18725,0.873315364,21.81886793,0.5218,0.4782,-1
2011_127200,2011,127200,Front Range Community College,Westminster,CO,80031,7,39.901757,-105.039359,-1,-1,15816,0.768042814,27.34342508,0.4192,0.5808,-1
2011_127219,2011,127219,Glenwood Beauty Academy,Glenwood Springs,CO,81601,7,39.561947,-107.359099,-1,-1,-1,0.877777778,28.78888889,0.0685,0.9315,-1
2011_127228,2011,127228,Hair Dynamics Education Center,Fort Collins,CO,80525,7,40.497241,-105.076492,-1,-1,-1,0.962121212,25.88636364,0.0237,0.9763,-1
2011_127273,2011,127273,Iliff School of Theology,Denver,CO,80210-4798,7,39.674876,-104.959703,-1,-1,-1,PrivacySuppressed,40.75,-1,-1,361
2011_127316,2011,127316,International Salon and Spa Academy,Colorado Springs,CO,80918-3684,7,38.913621,-104.786252,-1,-1,-1,0.791284404,27.59174312,0.2277,0.7723,-1
2011_127389,2011,127389,Lamar Community College,Lamar,CO,81052-3999,7,38.058067,-102.615612,-1,-1,15430,0.649425287,25.15517241,0.4332,0.5668,-1
2011_127556,2011,127556,Colorado Mesa University,Grand Junction,CO,81501-3122,7,39.076354,-108.540281,0.7991,971,18115,0.904511278,23.52800752,0.4554,0.5446,75
2011_127565,2011,127565,Metropolitan State University of Denver,Denver,CO,80217-3362,7,39.742248,-105.002391,0.7006,973,13037,0.862626263,26.10833333,0.4652,0.5348,251
2011_127617,2011,127617,Morgan Community College,Fort  Morgan,CO,80701,7,40.258792,-103.771822,-1,-1,15396,0.518823529,28.52,0.2724,0.7276,-1
2011_127653,2011,127653,Naropa University,Boulder,CO,80302-6697,7,40.014816,-105.267073,0.9124,-1,39119,0.935606061,25.8030303,0.4062,0.5938,663
2011_127680,2011,127680,National American University-Colorado Springs,Colorado Springs,CO,80920,7,38.95211,-104.790581,-1,-1,22436,0.870322149,32.40979094,0.3683,0.6317,-1
2011_127699,2011,127699,National American University-Denver,Denver,CO,80222-3308,7,39.691953,-104.941649,-1,-1,20026,0.870322149,32.40979094,0.155,0.845,-1
2011_127714,2011,127714,Nazarene Bible College,Colorado Springs,CO,80910-3704,7,38.814124,-104.751124,-1,-1,18475,0.848684211,35.34210526,0.6326,0.3674,-1
2011_127732,2011,127732,Northeastern Junior College,Sterling,CO,80751-2944,7,40.636879,-103.197536,-1,-1,14867,0.781967213,22.92622951,0.434,0.566,-1
2011_127741,2011,127741,University of Northern Colorado,Greeley,CO,80639,7,40.403178,-104.701721,0.7282,1033,18186,0.923423423,21.86786787,0.3807,0.6193,2624
2011_127778,2011,127778,Otero Junior College,La Junta,CO,81050,7,37.971184,-103.544779,-1,-1,15712,0.594911937,25.46379648,0.4104,0.5896,-1
2011_127787,2011,127787,Everest College-Thornton,Thornton,CO,80229,7,39.86156,-104.985441,-1,-1,26423,0.871219065,27.80293309,0.2457,0.7543,-1
2011_127820,2011,127820,Pikes Peak Community College,Colorado Springs,CO,80906-5498,7,38.764287,-104.787261,-1,-1,17958,0.532969617,27.92249083,0.4165,0.5835,-1
2011_127839,2011,127839,IBMC College,Colorado Springs,CO,80919,7,38.931,-104.814211,-1,-1,-1,0.849925706,29.40267459,0.2556,0.7444,-1
2011_127884,2011,127884,Pueblo Community College,Pueblo,CO,81004-1499,7,38.263458,-104.636396,-1,-1,15396,0.649476388,28.65797273,0.3906,0.6094,-1
2011_127909,2011,127909,Red Rocks Community College,Lakewood,CO,80228-1255,7,39.720277,-105.150094,-1,-1,15913,0.710962284,28.95382446,0.4974,0.5026,-1
2011_127918,2011,127918,Regis University,Denver,CO,80221-1099,7,39.78976,-105.031385,0.759,1105,41825,0.943107932,30.70481144,0.3515,0.6485,5610
2011_127945,2011,127945,Rocky Mountain College of Art and Design,Lakewood,CO,80214,7,39.74332,-105.069911,-1,-1,38760,0.94890511,24.33759124,0.3774,0.6226,-1
2011_127954,2011,127954,Montessori Education Center of the Rockies,Boulder,CO,80301,7,39.96504,-105.25311,1,-1,-1,PrivacySuppressed,31.96875,0.0667,0.9333,63
2011_128106,2011,128106,Colorado State University-Pueblo,Pueblo,CO,81001-4901,7,38.309219,-104.579846,0.9332,972,16097,0.89782319,26.86539316,0.471,0.529,1550
2011_128151,2011,128151,Pickens Technical College,Aurora,CO,80011-9307,7,39.723527,-104.78998,-1,-1,14025,PrivacySuppressed,29.96222664,0.5561,0.4439,-1
2011_128179,2011,128179,Intellitec College-Colorado Springs,Colorado Springs,CO,80909-6096,7,38.832183,-104.78721,-1,-1,-1,0.786945813,28.99137931,0.8049,0.1951,-1
2011_128188,2011,128188,Intellitec College-Grand Junction,Grand Junction,CO,81506,7,39.116346,-108.53062,-1,-1,-1,0.934084996,27.9991327,0.214,0.786,-1
2011_128258,2011,128258,Trinidad State Junior College,Trinidad,CO,81082,7,37.172939,-104.512184,-1,-1,15767,0.456973294,26.42878338,0.4407,0.5593,-1
2011_128337,2011,128337,Empire Beauty School-Thornton,Thornton,CO,80233,7,39.914863,-104.943533,-1,-1,-1,0.907894737,25.73245614,0.0496,0.9504,-1
2011_128391,2011,128391,Western State Colorado University,Gunnison,CO,81231,7,38.547421,-106.91971,0.9251,1015,16716,0.902119072,21.31886983,0.6078,0.3922,203
2011_128498,2011,128498,Albertus Magnus College,New Haven,CT,06511-1189,1,41.332519,-72.923848,0.866,878,37999,0.97242842,28.6330859,0.3411,0.6589,406
2011_128540,2011,128540,Paul Mitchell the School-Danbury,Danbury,CT,6810,1,41.39648,-73.451841,-1,-1,-1,0.918699187,24.12195122,0.0642,0.9358,-1
2011_128577,2011,128577,Asnuntuck Community College,Enfield,CT,6082,1,41.998409,-72.570177,-1,-1,10667,0.185851319,27.16306954,0.4683,0.5317,-1
2011_128674,2011,128674,Branford Hall Career Institute-Branford Campus,Branford,CT,6405,1,41.278557,-72.848201,-1,-1,-1,0.846067596,30.18388595,0.2637,0.7363,-1
2011_128683,2011,128683,Lincoln College of New England-Southington,Southington,CT,06489-1057,1,41.632345,-72.920217,-1,-1,31390,0.947281713,27.34816035,0.2133,0.7867,-1
2011_128726,2011,128726,Bridgeport Hospital School of Nursing,Bridgeport,CT,6610,1,41.189413,-73.165185,-1,-1,23545,PrivacySuppressed,30.3857868,0.2208,0.7792,-1
